,id,latitude,longitude,name,opening_hours,rating,utc_offset
0,ChIJa6LNPgpu5kcRhgsb7MbmHw8,48.8719869,2.366609,PRUNE DE NUIT,"{'0': [], '1': [], '2': [], '3': [], '4': [], '5': [], '6': []}",4.8,60
1,ChIJaVQu_JBx5kcRJfHbsRGxRB0,48.82822900000001,2.3501436,Cafe du Commerce,"{'0': [{'_1': 12.0, '_2': 15.0}, {'_1': 19.0, '_2': 24.0}, {'_1': 0.0, '_2': 2.0}], '1': [{'_1': 0.0, '_2': 2.0}], '2': [{'_1': 12.0, '_2': 15.0}, {'_1': 19.0, '_2': 24.0}], '3': [{'_1': 0.0, '_2': 2.0}, {'_1': 12.0, '_2': 15.0}, {'_1': 19.0, '_2': 24.0}], '4': [{'_1': 0.0, '_2': 2.0}, {'_1': 12.0, '_2': 15.0}, {'_1': 19.0, '_2': 24.0}], '5': [{'_1': 0.0, '_2': 2.0}, {'_1': 12.0, '_2': 15.0}, {'_1': 19.0, '_2': 24.0}], '6': [{'_1': 0.0, '_2': 2.0}, {'_1': 12.0, '_2': 15.0}, {'_1': 19.0, '_2': 24.0}]}",3.8,60
2,ChIJ773XIjRu5kcRsQxQXK-vgjc,48.8728825,2.3290334,Ce 9,"{'0': [], '1': [], '2': [], '3': [], '4': [], '5': [], '6': []}",0.0,60
3,ChIJ75q8H_hC5kcRyqJmeICPr2Y,49.0482166,2.3362524,Morocco Restaurant,"{'0': [{'_1': 12.0, '_2': 14.5}], '1': [], '2': [{'_1': 12.0, '_2': 14.5}, {'_1': 19.0, '_2': 22.5}], '3': [{'_1': 12.0, '_2': 14.5}, {'_1': 19.0, '_2': 22.5}], '4': [{'_1': 12.0, '_2': 14.5}, {'_1': 19.0, '_2': 22.5}], '5': [{'_1': 12.0, '_2': 14.5}, {'_1': 19.0, '_2': 22.5}], '6': [{'_1': 12.0, '_2': 14.5}, {'_1': 19.0, '_2': 22.5}]}",3.7,60
4,ChIJQ64x_xVu5kcRSExgSm4ySNA,48.8715366,2.3457812,Okinawa Sushi,"{'0': [{'_1': 19.25, '_2': 23.0}], '1': [{'_1': 11.5, '_2': 14.5}, {'_1': 19.25, '_2': 23.0}], '2': [{'_1': 11.5, '_2': 14.5}, {'_1': 19.25, '_2': 23.0}], '3': [{'_1': 11.5, '_2': 14.5}, {'_1': 19.25, '_2': 23.0}], '4': [{'_1': 11.5, '_2': 14.5}, {'_1': 19.25, '_2': 23.0}], '5': [{'_1': 11.5, '_2': 14.5}, {'_1': 19.25, '_2': 23.0}], '6': [{'_1': 11.5, '_2': 14.5}, {'_1': 19.25, '_2': 23.0}]}",3.6,60
5,ChIJnSdJuBtu5kcRDjV7OcUbw3U,48.8628654,2.352111599999999,Sainmart,"{'0': [], '1': [], '2': [], '3': [], '4': [], '5': [], '6': []}",0.0,60
6,ChIJR2qQ4vxt5kcRFDrt-Xn8Z58,48.8639709,2.3704037,Sarl Rihosa Hopson,"{'0': [], '1': [], '2': [], '3': [], '4': [], '5': [], '6': []}",0.0,60
7,ChIJ_xqB6TZu5kcRygNHisEgUaM,48.8730121,2.3307481,Cafe Paulette,"{'0': [{'_1': 11.0, '_2': 19.0}], '1': [{'_1': 9.5, '_2': 21.5}], '2': [{'_1': 9.5, '_2': 21.5}], '3': [{'_1': 9.5, '_2': 21.5}], '4': [{'_1': 9.5, '_2': 21.5}], '5': [{'_1': 9.5, '_2': 21.5}], '6': [{'_1': 9.5, '_2': 21.5}]}",0.0,60
8,ChIJVSx9h35MHRURuTfjyIiRjV4,32.0774305,34.7690306,Pizza Bograshov,"{'0': [], '1': [], '2': [], '3': [], '4': [], '5': [], '6': []}",0.0,120
9,ChIJPZrqSSNy5kcRJMI1PDVUt_Y,48.83101509999999,2.3759411,IT,"{'0': [{'_1': 12.0, '_2': 22.5}], '1': [{'_1': 8.0, '_2': 22.5}], '2': [{'_1': 8.0, '_2': 22.5}], '3': [{'_1': 8.0, '_2': 22.5}], '4': [{'_1': 8.0, '_2': 22.5}], '5': [{'_1': 8.0, '_2': 23.0}], '6': [{'_1': 12.0, '_2': 23.0}]}",3.6,60
10,ChIJPzv6lBNu5kcRjvR_SxkHCwg,48.87255930000001,2.3526261,Groupe Flo,"{'0': [], '1': [], '2': [], '3': [], '4': [], '5': [], '6': []}",0.0,60
11,ChIJK1czwhpu5kcR_o0mis0WhRs,48.8645289,2.3551016,Happy Nouilles,"{'0': [{'_1': 11.5, '_2': 22.5}], '1': [{'_1': 11.5, '_2': 22.5}], '2': [], '3': [{'_1': 11.5, '_2': 22.5}], '4': [{'_1': 11.5, '_2': 22.5}], '5': [{'_1': 11.5, '_2': 22.5}], '6': [{'_1': 11.5, '_2': 22.5}]}",4.4,60
12,ChIJES15TwVu5kcRZLONVxK0O78,48.86505520000001,2.357302599999999,Le Lafon - Paris,"{'0': [{'_1': 0.0, '_2': 0.25}], '1': [{'_1': 6.5, '_2': 24.0}], '2': [{'_1': 0.0, '_2': 2.0}, {'_1': 6.5, '_2': 24.0}], '3': [{'_1': 0.0, '_2': 2.0}, {'_1': 6.5, '_2': 24.0}], '4': [{'_1': 0.0, '_2': 2.0}, {'_1': 6.5, '_2': 24.0}], '5': [{'_1': 0.0, '_2': 2.0}, {'_1': 6.5, '_2': 24.0}], '6': [{'_1': 0.0, '_2': 2.0}, {'_1': 7.0, '_2': 24.0}]}",4.5,60
13,ChIJJ0HsuBtu5kcRQIbNE1JiZzk,48.8626898,2.3521434,Le Carlie,"{'0': [{'_1': 0.0, '_2': 2.0}], '1': [], '2': [{'_1': 18.0, '_2': 24.0}], '3': [{'_1': 0.0, '_2': 2.0}, {'_1': 18.0, '_2': 24.0}], '4': [{'_1': 0.0, '_2': 2.0}, {'_1': 18.0, '_2': 24.0}], '5': [{'_1': 0.0, '_2': 2.0}, {'_1': 18.0, '_2': 24.0}], '6': [{'_1': 0.0, '_2': 2.0}, {'_1': 18.0, '_2': 24.0}]}",4.4,60
14,ChIJu2geuBtu5kcRVdOzozuBnIc,48.86298660000001,2.352067700000001,Chez Mana,"{'0': [{'_1': 11.5, '_2': 15.0}, {'_1': 18.5, '_2': 23.0}], '1': [{'_1': 11.5, '_2': 15.0}, {'_1': 18.5, '_2': 23.0}], '2': [{'_1': 11.5, '_2': 15.0}, {'_1': 18.5, '_2': 23.0}], '3': [{'_1': 11.5, '_2': 15.0}, {'_1': 18.5, '_2': 23.0}], '4': [{'_1': 11.5, '_2': 15.0}, {'_1': 18.5, '_2': 23.0}], '5': [{'_1': 11.5, '_2': 15.0}, {'_1': 18.5, '_2': 23.0}], '6': [{'_1': 11.5, '_2': 15.0}, {'_1': 18.5, '_2': 23.0}]}",5.0,60
15,ChIJdaz56JBx5kcRODTkablC1Tc,48.8277118,2.3493392,Les Cailloux,"{'0': [{'_1': 8.0, '_2': 24.0}, {'_1': 0.0, '_2': 1.0}], '1': [{'_1': 0.0, '_2': 1.0}, {'_1': 8.0, '_2': 24.0}], '2': [{'_1': 0.0, '_2': 1.0}, {'_1': 8.0, '_2': 24.0}], '3': [{'_1': 0.0, '_2': 1.0}, {'_1': 8.0, '_2': 24.0}], '4': [{'_1': 0.0, '_2': 1.0}, {'_1': 8.0, '_2': 24.0}], '5': [{'_1': 0.0, '_2': 1.0}, {'_1': 8.0, '_2': 24.0}], '6': [{'_1': 0.0, '_2': 1.0}, {'_1': 8.0, '_2': 24.0}]}",3.7,60
16,ChIJlV7R8JBx5kcRijuMQpdAYoM,48.8276987,2.3501923,Taverne de la Butte,"{'0': [{'_1': 17.0, '_2': 24.0}, {'_1': 0.0, '_2': 2.0}], '1': [{'_1': 17.0, '_2': 24.0}], '2': [{'_1': 0.0, '_2': 2.0}, {'_1': 17.0, '_2': 24.0}], '3': [{'_1': 0.0, '_2': 2.0}, {'_1': 17.0, '_2': 24.0}], '4': [{'_1': 0.0, '_2': 2.0}, {'_1': 17.0, '_2': 24.0}], '5': [{'_1': 0.0, '_2': 2.0}, {'_1': 17.0, '_2': 24.0}], '6': [{'_1': 0.0, '_2': 2.0}, {'_1': 17.0, '_2': 24.0}]}",4.1,60
17,ChIJfXsc5T1u5kcRJ6H0C_H82gs,48.8708338,2.3448572,American M.e.a. Cie,"{'0': [], '1': [], '2': [], '3': [], '4': [], '5': [], '6': []}",0.0,60
18,ChIJETyKaxFu5kcRbIDsGUuxLoE,48.86997909999999,2.3531998,Florida Food,"{'0': [], '1': [], '2': [], '3': [], '4': [], '5': [], '6': []}",0.0,60
19,ChIJ0_cM-hBu5kcREEAQ4IkCV84,48.868013,2.353275,Le Cerceau,"{'0': [], '1': [{'_1': 7.0, '_2': 24.0}], '2': [{'_1': 0.0, '_2': 2.0}, {'_1': 7.0, '_2': 24.0}], '3': [{'_1': 0.0, '_2': 2.0}, {'_1': 7.0, '_2': 24.0}], '4': [{'_1': 0.0, '_2': 2.0}, {'_1': 7.0, '_2': 24.0}], '5': [{'_1': 0.0, '_2': 2.0}, {'_1': 7.0, '_2': 24.0}], '6': [{'_1': 0.0, '_2': 2.0}, {'_1': 7.0, '_2': 21.0}]}",4.4,60
20,ChIJh9CWKNlx5kcRawcwkz6Bffc,48.8536527,2.3380009,Boomrang Le,"{'0': [], '1': [], '2': [], '3': [], '4': [], '5': [], '6': []}",1.3,60
21,ChIJhcseANfd4EcRZuolD55qh6s,49.443726,1.0946646,Kids World,"{'0': [], '1': [], '2': [], '3': [], '4': [], '5': [], '6': []}",0.0,60
22,ChIJz4xexgBy5kcRigH2Zxcooyc,48.8541903,2.3715362,Why Not Paris Grill,"{'0': [{'_1': 12.0, '_2': 15.0}, {'_1': 18.0, '_2': 24.0}], '1': [{'_1': 12.0, '_2': 15.0}, {'_1': 18.0, '_2': 24.0}], '2': [{'_1': 12.0, '_2': 15.0}, {'_1': 18.0, '_2': 24.0}], '3': [{'_1': 12.0, '_2': 15.0}, {'_1': 18.0, '_2': 24.0}], '4': [{'_1': 12.0, '_2': 15.0}, {'_1': 18.0, '_2': 24.0}], '5': [{'_1': 12.0, '_2': 15.0}, {'_1': 18.0, '_2': 24.0}], '6': [{'_1': 12.0, '_2': 15.0}, {'_1': 18.0, '_2': 24.0}]}",4.0,60
23,ChIJwQs6InZu5kcRis0xprkha7E,48.8822859,2.368707,Soh B&K,"{'0': [], '1': [{'_1': 12.0, '_2': 21.5}], '2': [{'_1': 12.0, '_2': 21.5}], '3': [{'_1': 12.0, '_2': 21.5}], '4': [{'_1': 12.0, '_2': 21.5}], '5': [{'_1': 12.0, '_2': 21.5}], '6': [{'_1': 12.0, '_2': 21.5}]}",0.0,60
24,ChIJY3-k1hlu5kcRE6yS3VYFXv0,48.8659248,2.3484712,À La Main Le Comptoir,"{'0': [], '1': [], '2': [{'_1': 18.0, '_2': 24.0}], '3': [{'_1': 18.0, '_2': 24.0}], '4': [{'_1': 18.0, '_2': 24.0}], '5': [{'_1': 18.0, '_2': 24.0}], '6': [{'_1': 18.0, '_2': 24.0}]}",4.3,60
25,ChIJnxcg9zZu5kcRBnyYcJgiUR8,48.8738759,2.3309965,Cafe Des Sports,"{'0': [], '1': [], '2': [], '3': [], '4': [], '5': [], '6': []}",0.0,60
26,ChIJY-1XtRNu5kcR6cJga57p0dg,48.87237719999999,2.354262799999999,Urfa Durum,"{'0': [], '1': [{'_1': 12.0, '_2': 24.0}], '2': [{'_1': 12.0, '_2': 24.0}], '3': [{'_1': 12.0, '_2': 24.0}], '4': [{'_1': 12.0, '_2': 24.0}], '5': [{'_1': 12.0, '_2': 24.0}], '6': [{'_1': 12.0, '_2': 24.0}]}",4.7,60
27,ChIJy02IXa5v5kcR36278LO_G0Y,48.88907639999999,2.3176357,Aname,"{'0': [{'_1': 19.5, '_2': 23.0}], '1': [{'_1': 12.0, '_2': 14.75}, {'_1': 19.5, '_2': 22.5}], '2': [{'_1': 12.0, '_2': 14.75}, {'_1': 19.5, '_2': 22.5}], '3': [{'_1': 12.0, '_2': 14.75}, {'_1': 19.5, '_2': 22.5}], '4': [{'_1': 12.0, '_2': 14.75}, {'_1': 19.5, '_2': 22.5}], '5': [{'_1': 12.0, '_2': 14.75}, {'_1': 19.5, '_2': 23.0}], '6': [{'_1': 12.0, '_2': 14.75}, {'_1': 19.5, '_2': 23.0}]}",3.7,60
28,ChIJg-LMvxdu5kcRpC_BaVFtU3k,48.8675514,2.3469909,Sarl E.l.c.,"{'0': [], '1': [], '2': [], '3': [], '4': [], '5': [], '6': []}",0.0,60
29,ChIJocC1Y3ly5kcRpS1rolOXlZM,48.85035579999999,2.4038138,La Parisienne,"{'0': [{'_1': 19.0, '_2': 24.0}, {'_1': 0.0, '_2': 2.0}], '1': [{'_1': 0.0, '_2': 2.0}, {'_1': 19.0, '_2': 24.0}], '2': [{'_1': 0.0, '_2': 2.0}, {'_1': 19.0, '_2': 24.0}], '3': [{'_1': 0.0, '_2': 2.0}, {'_1': 19.0, '_2': 24.0}], '4': [{'_1': 0.0, '_2': 2.0}, {'_1': 19.0, '_2': 24.0}], '5': [{'_1': 0.0, '_2': 2.0}, {'_1': 19.0, '_2': 24.0}], '6': [{'_1': 0.0, '_2': 2.0}, {'_1': 19.0, '_2': 24.0}]}",3.0,60
30,ChIJS3YYixNu5kcRZyA1Ya1Xn9c,48.8724872,2.3515337,Jésusparadis,"{'0': [{'_1': 0.0, '_2': 1.5}], '1': [{'_1': 12.0, '_2': 15.5}], '2': [{'_1': 12.0, '_2': 15.5}, {'_1': 18.5, '_2': 24.0}], '3': [{'_1': 0.0, '_2': 1.5}, {'_1': 12.0, '_2': 15.5}, {'_1': 18.5, '_2': 24.0}], '4': [{'_1': 0.0, '_2': 1.5}, {'_1': 12.0, '_2': 15.5}, {'_1': 18.5, '_2': 24.0}], '5': [{'_1': 0.0, '_2': 1.5}, {'_1': 12.0, '_2': 15.5}, {'_1': 18.5, '_2': 24.0}], '6': [{'_1': 0.0, '_2': 1.5}, {'_1': 18.5, '_2': 24.0}]}",4.0,60
31,ChIJn2PXeBpu5kcRsm9NMuXXXQI,48.86597159999999,2.3533038,Ho Minh,"{'0': [], '1': [], '2': [], '3': [], '4': [], '5': [], '6': []}",0.0,60
32,ChIJ614ryQBy5kcR3hySGs6_1e0,48.85416619999999,2.3719468,Sarl Disha,"{'0': [], '1': [], '2': [], '3': [], '4': [], '5': [], '6': []}",0.0,60
33,ChIJIcuh-hlu5kcRqTbXiBI2CCE,48.86551859999999,2.3504298,Ma Cave Fleury,"{'0': [], '1': [{'_1': 17.0, '_2': 21.0}], '2': [{'_1': 11.0, '_2': 13.0}, {'_1': 17.0, '_2': 22.0}], '3': [{'_1': 11.0, '_2': 13.0}, {'_1': 17.0, '_2': 22.0}], '4': [{'_1': 11.0, '_2': 13.0}, {'_1': 17.0, '_2': 22.0}], '5': [{'_1': 11.0, '_2': 13.0}, {'_1': 17.0, '_2': 22.0}], '6': [{'_1': 12.0, '_2': 21.0}]}",4.5,60
34,ChIJ3zaGRtlx5kcRfSCO7Wt9U-o,48.85365090000001,2.3379973,Glozaria,"{'0': [{'_1': 12.0, '_2': 23.0}], '1': [], '2': [{'_1': 12.5, '_2': 23.0}], '3': [{'_1': 12.0, '_2': 23.0}], '4': [{'_1': 12.0, '_2': 23.0}], '5': [{'_1': 12.0, '_2': 23.0}], '6': [{'_1': 12.0, '_2': 23.0}]}",3.9,60
35,ChIJGa1T4RFu5kcRKOUy9OJRE-Y,48.870127,2.3564414,Osè African Cuisine,"{'0': [{'_1': 18.5, '_2': 22.5}], '1': [{'_1': 12.0, '_2': 14.5}, {'_1': 18.5, '_2': 22.5}], '2': [{'_1': 12.0, '_2': 14.5}, {'_1': 18.5, '_2': 22.5}], '3': [{'_1': 12.0, '_2': 14.5}, {'_1': 18.5, '_2': 22.5}], '4': [{'_1': 12.0, '_2': 14.5}, {'_1': 18.5, '_2': 22.5}], '5': [{'_1': 12.0, '_2': 14.5}, {'_1': 18.5, '_2': 22.5}], '6': [{'_1': 12.0, '_2': 23.0}]}",4.4,60
36,ChIJ8SwWQ1tt5kcRveSOC2JhxcY,48.8632418,2.441606800000001,La Maison du Phénix,"{'0': [], '1': [], '2': [], '3': [], '4': [], '5': [], '6': []}",1.5,60
37,ChIJ7yyOx_5C5kcR6j0nPtsCDUg,49.04128,2.340291999999999,LA CROISSANTERIE MOISSELLES,"{'0': [], '1': [], '2': [], '3': [], '4': [], '5': [], '6': []}",3.0,60
38,ChIJy1CYad1t5kcRujzjlMNJ-tA,48.87659109999999,2.378371399999999,Thalassa,"{'0': [{'_1': 12.0, '_2': 14.5}], '1': [{'_1': 17.0, '_2': 22.5}], '2': [{'_1': 12.0, '_2': 14.5}, {'_1': 17.0, '_2': 22.5}], '3': [{'_1': 12.0, '_2': 14.5}, {'_1': 17.0, '_2': 22.5}], '4': [{'_1': 12.0, '_2': 14.5}, {'_1': 17.0, '_2': 22.5}], '5': [{'_1': 12.0, '_2': 14.5}, {'_1': 17.0, '_2': 22.5}], '6': [{'_1': 12.0, '_2': 14.5}, {'_1': 17.0, '_2': 22.5}]}",4.8,60
39,ChIJDfLc70xu5kcR2J1RY4BGuZ0,48.8835637,2.326301299999999,Paradis Batignolles,"{'0': [], '1': [], '2': [], '3': [], '4': [], '5': [], '6': []}",0.0,60
40,ChIJZRgXIeht5kcRzMB45Y0KjWw,48.8754064,2.3814554,La Brick,"{'0': [{'_1': 12.0, '_2': 23.0}], '1': [], '2': [{'_1': 12.0, '_2': 23.0}], '3': [{'_1': 12.0, '_2': 23.0}], '4': [{'_1': 12.0, '_2': 23.0}], '5': [{'_1': 12.0, '_2': 23.0}], '6': [{'_1': 12.0, '_2': 23.0}]}",3.9,60
41,ChIJcRjRXA9u5kcRzbTrhEXDVRU,48.866418,2.360937,Sushi Yaki,"{'0': [{'_1': 18.0, '_2': 23.0}], '1': [{'_1': 12.0, '_2': 15.0}, {'_1': 18.0, '_2': 23.0}], '2': [{'_1': 12.0, '_2': 15.0}, {'_1': 18.0, '_2': 23.0}], '3': [{'_1': 12.0, '_2': 15.0}, {'_1': 18.0, '_2': 23.0}], '4': [{'_1': 12.0, '_2': 15.0}, {'_1': 18.0, '_2': 23.0}], '5': [{'_1': 12.0, '_2': 15.0}, {'_1': 18.0, '_2': 23.0}], '6': [{'_1': 12.0, '_2': 15.0}, {'_1': 18.0, '_2': 23.0}]}",3.8,60
42,ChIJVQJnH8Ft5kcRI_CwOgXOhPI,48.87928369999999,2.3884382,Gabay Levi (Sarl) Sarl,"{'0': [], '1': [], '2': [], '3': [], '4': [], '5': [], '6': []}",0.0,60
43,ChIJ01vBbhFu5kcRcydtcHjKQOc,48.8703319,2.353115299999999,Le Rajpout,"{'0': [], '1': [], '2': [], '3': [], '4': [], '5': [], '6': []}",1.0,60
44,ChIJg8llyhNu5kcRuSyOIPtGXOg,48.8723718,2.353868899999999,Hutch Hot-Dogs House,"{'0': [{'_1': 11.0, '_2': 24.0}, {'_1': 0.0, '_2': 1.0}], '1': [{'_1': 0.0, '_2': 1.0}, {'_1': 11.0, '_2': 24.0}], '2': [{'_1': 0.0, '_2': 1.0}, {'_1': 11.0, '_2': 24.0}], '3': [{'_1': 0.0, '_2': 1.0}, {'_1': 11.0, '_2': 24.0}], '4': [{'_1': 0.0, '_2': 1.0}, {'_1': 11.0, '_2': 24.0}], '5': [{'_1': 0.0, '_2': 1.0}, {'_1': 11.0, '_2': 24.0}], '6': [{'_1': 0.0, '_2': 1.0}, {'_1': 11.0, '_2': 24.0}]}",3.5,60
45,ChIJJ84mN65v5kcRORMjCMyrQQE,48.8881175,2.316689,La Gioconda,"{'0': [{'_1': 12.0, '_2': 14.5}, {'_1': 19.0, '_2': 23.0}], '1': [{'_1': 12.0, '_2': 14.5}, {'_1': 19.0, '_2': 23.0}], '2': [{'_1': 12.0, '_2': 14.5}, {'_1': 19.0, '_2': 23.0}], '3': [{'_1': 12.0, '_2': 14.5}, {'_1': 19.0, '_2': 23.0}], '4': [{'_1': 12.0, '_2': 14.5}, {'_1': 19.0, '_2': 23.0}], '5': [{'_1': 12.0, '_2': 14.5}, {'_1': 19.0, '_2': 23.0}], '6': [{'_1': 12.0, '_2': 14.5}, {'_1': 19.0, '_2': 23.0}]}",4.1,60
46,ChIJ-0CU-TZu5kcRmlXTdx9Ylc8,48.8738885,2.3310899,Café de l'Opéra,"{'0': [], '1': [{'_1': 7.0, '_2': 21.0}], '2': [{'_1': 7.0, '_2': 21.0}], '3': [{'_1': 7.0, '_2': 21.0}], '4': [{'_1': 7.0, '_2': 21.0}], '5': [{'_1': 7.0, '_2': 21.0}], '6': [{'_1': 7.0, '_2': 21.0}]}",2.9,60
47,ChIJI2U6YXZu5kcRUJT7LT-nrPU,48.8819577,2.3665207,Touytouyt - Restaurant Franco-Cambodgien,"{'0': [], '1': [{'_1': 12.0, '_2': 14.5}], '2': [{'_1': 12.0, '_2': 14.5}, {'_1': 19.0, '_2': 22.5}], '3': [{'_1': 12.0, '_2': 14.5}, {'_1': 19.0, '_2': 22.5}], '4': [{'_1': 12.0, '_2': 14.5}, {'_1': 19.0, '_2': 22.5}], '5': [{'_1': 12.0, '_2': 14.5}, {'_1': 19.0, '_2': 22.5}], '6': [{'_1': 12.0, '_2': 14.5}, {'_1': 19.0, '_2': 22.5}]}",4.8,60
48,ChIJo_gDfA5u5kcRbb7--_G78So,48.8706621,2.3594171,Le Petit Château d'Eau,"{'0': [{'_1': 0.0, '_2': 2.0}], '1': [{'_1': 8.0, '_2': 24.0}], '2': [{'_1': 8.0, '_2': 24.0}], '3': [{'_1': 8.0, '_2': 24.0}], '4': [{'_1': 8.0, '_2': 24.0}], '5': [{'_1': 8.0, '_2': 24.0}], '6': [{'_1': 0.0, '_2': 2.0}, {'_1': 9.0, '_2': 24.0}]}",4.0,60
49,ChIJlcpd3Atu5kcRa22_Ew1CByo,48.87140230000001,2.364117999999999,Le Repère,"{'0': [], '1': [], '2': [], '3': [], '4': [], '5': [], '6': []}",4.0,60
50,ChIJOxssZQ9u5kcRHqDB1wVDF6g,48.8664525,2.3599632,La Favorite,"{'0': [{'_1': 7.0, '_2': 24.0}, {'_1': 0.0, '_2': 2.0}], '1': [{'_1': 0.0, '_2': 2.0}, {'_1': 7.0, '_2': 24.0}], '2': [{'_1': 0.0, '_2': 2.0}, {'_1': 7.0, '_2': 24.0}], '3': [{'_1': 0.0, '_2': 2.0}, {'_1': 7.0, '_2': 24.0}], '4': [{'_1': 0.0, '_2': 2.0}, {'_1': 7.0, '_2': 24.0}], '5': [{'_1': 0.0, '_2': 2.0}, {'_1': 7.0, '_2': 24.0}], '6': [{'_1': 0.0, '_2': 2.0}, {'_1': 7.0, '_2': 24.0}]}",3.6,60
51,ChIJ10w-zwBy5kcRPScM4iB-Xio,48.8540232,2.3717803,Les Visiteurs,"{'0': [], '1': [], '2': [], '3': [], '4': [], '5': [], '6': []}",0.0,60
52,ChIJc0o59jlu5kcRozzScUSGnp8,48.8714787,2.3356773,レオン ド ブリュッセル (オペラ店)ムール貝,"{'0': [], '1': [], '2': [], '3': [], '4': [], '5': [], '6': []}",4.0,60
53,ChIJgX3s2MNt5kcRUUb9_RTNdUU,48.8788875,2.385623,Osteria Sicilia,"{'0': [], '1': [], '2': [{'_1': 12.0, '_2': 14.0}, {'_1': 19.0, '_2': 22.0}], '3': [{'_1': 12.0, '_2': 14.0}, {'_1': 19.0, '_2': 22.0}], '4': [{'_1': 12.0, '_2': 14.0}, {'_1': 19.0, '_2': 22.0}], '5': [{'_1': 12.0, '_2': 14.0}, {'_1': 19.0, '_2': 22.0}], '6': [{'_1': 12.0, '_2': 14.0}, {'_1': 19.0, '_2': 22.0}]}",0.0,60
54,ChIJxaCxpBRu5kcRQ9-jT_pb_YE,48.8753608,2.3510264,Le Fantôme,"{'0': [{'_1': 0.0, '_2': 2.0}], '1': [], '2': [{'_1': 11.0, '_2': 24.0}], '3': [{'_1': 0.0, '_2': 2.0}, {'_1': 11.0, '_2': 24.0}], '4': [{'_1': 0.0, '_2': 2.0}, {'_1': 11.0, '_2': 24.0}], '5': [{'_1': 0.0, '_2': 2.0}, {'_1': 11.0, '_2': 24.0}], '6': [{'_1': 0.0, '_2': 2.0}, {'_1': 18.0, '_2': 24.0}]}",3.6,60
55,ChIJ3aWuoQtu5kcRA3hEt0vbvpc,48.87315299999999,2.3643653,Le Citizen Hôtel,"{'0': [], '1': [], '2': [], '3': [], '4': [], '5': [], '6': []}",4.6,60
56,ChIJE_HA8ahqHRURQcj0sIoDC04,32.3302717,34.8529149,Pundak HaYam,"{'0': [{'_1': 9.0, '_2': 22.0}], '1': [{'_1': 9.0, '_2': 22.0}], '2': [{'_1': 9.0, '_2': 22.0}], '3': [{'_1': 9.0, '_2': 22.0}], '4': [{'_1': 9.0, '_2': 22.0}], '5': [{'_1': 9.0, '_2': 16.5}], '6': [{'_1': 9.0, '_2': 22.0}]}",3.8,120
57,ChIJ4QEz-D1u5kcRZEGju1lu3IM,48.8707192,2.3455899,Bar Para Li,"{'0': [], '1': [], '2': [], '3': [], '4': [], '5': [], '6': []}",0.0,60
58,ChIJF_0s3z1u5kcRM1BLj1zRKxE,48.8711479,2.3438029,L'Entracte,"{'0': [], '1': [], '2': [], '3': [], '4': [], '5': [], '6': []}",0.0,60
59,ChIJyf7DShJu5kcRYGlZE2mXqIo,48.87240070000001,2.3542902,Julhès,"{'0': [{'_1': 10.0, '_2': 13.0}], '1': [{'_1': 9.5, '_2': 20.5}], '2': [{'_1': 9.5, '_2': 20.5}], '3': [{'_1': 9.5, '_2': 20.5}], '4': [{'_1': 9.5, '_2': 20.5}], '5': [{'_1': 9.5, '_2': 20.5}], '6': [{'_1': 9.5, '_2': 20.5}]}",4.2,60
60,ChIJV5oPThFu5kcRJPYlDJN6TfU,48.87050979999999,2.3516535,Zheng,"{'0': [], '1': [], '2': [], '3': [], '4': [], '5': [], '6': []}",0.0,60
61,ChIJIR2Kpxdu5kcRXeYknf4wkxo,48.86800950000001,2.3482408,LaTarte,"{'0': [], '1': [{'_1': 9.0, '_2': 15.0}], '2': [{'_1': 9.0, '_2': 15.0}], '3': [{'_1': 9.0, '_2': 15.0}], '4': [{'_1': 9.0, '_2': 15.0}], '5': [{'_1': 9.0, '_2': 15.0}], '6': []}",4.3,60
62,ChIJyYUZJuZt5kcRM_esWinHrfA,48.8725666,2.3795194,Dong Fa,"{'0': [], '1': [], '2': [], '3': [], '4': [], '5': [], '6': []}",5.0,60
63,ChIJk_MiO01u5kcRBsAn9CQJrXc,48.8849983,2.3252833,Agadipain,"{'0': [], '1': [], '2': [], '3': [], '4': [], '5': [], '6': []}",3.0,60
64,ChIJgVj0agpu5kcR8gV5Xvv6RMk,48.872172,2.3669132,Blanchisserie Bichat,"{'0': [], '1': [], '2': [], '3': [], '4': [], '5': [], '6': []}",3.0,60
65,ChIJ___L5Qtu5kcRrYDBMW_-lHo,48.8714337,2.3635773,La Cantine Du 10,"{'0': [], '1': [], '2': [], '3': [], '4': [], '5': [], '6': []}",0.0,60
66,ChIJF1-B_JBx5kcRbLtg91grL9w,48.8281659,2.3500869,Butte aux Thai,"{'0': [{'_1': 19.0, '_2': 22.5}], '1': [], '2': [{'_1': 12.5, '_2': 14.5}, {'_1': 19.0, '_2': 22.75}], '3': [{'_1': 12.5, '_2': 14.5}, {'_1': 19.0, '_2': 22.75}], '4': [{'_1': 12.5, '_2': 14.5}, {'_1': 19.0, '_2': 22.75}], '5': [{'_1': 12.0, '_2': 14.5}, {'_1': 19.0, '_2': 23.0}], '6': [{'_1': 12.5, '_2': 14.5}, {'_1': 19.0, '_2': 22.75}]}",4.6,60
67,ChIJKynHxRFu5kcRLGk924OncJo,48.869265,2.3559948,L'Appartement Saint-Martin,"{'0': [{'_1': 11.5, '_2': 24.0}, {'_1': 0.0, '_2': 2.0}], '1': [{'_1': 9.5, '_2': 24.0}], '2': [{'_1': 9.5, '_2': 24.0}], '3': [{'_1': 9.5, '_2': 24.0}], '4': [{'_1': 0.0, '_2': 2.0}, {'_1': 9.5, '_2': 24.0}], '5': [{'_1': 0.0, '_2': 2.0}, {'_1': 9.5, '_2': 24.0}], '6': [{'_1': 0.0, '_2': 2.0}, {'_1': 9.5, '_2': 24.0}]}",3.5,60
68,ChIJSXcOqKhqHRURFo9Ot0UrwsY,32.3319862,34.8510254,Marrakesh,"{'0': [{'_1': 12.0, '_2': 23.0}], '1': [{'_1': 12.0, '_2': 23.0}], '2': [{'_1': 12.0, '_2': 23.0}], '3': [{'_1': 12.0, '_2': 23.0}], '4': [{'_1': 12.0, '_2': 23.0}], '5': [{'_1': 12.0, '_2': 16.5}], '6': [{'_1': 19.0, '_2': 23.0}]}",4.0,120
69,ChIJAQC8nxdu5kcR9w945q2qvYc,48.8673827,2.348082100000001,Thaï & sushi,"{'0': [{'_1': 13.0, '_2': 15.5}, {'_1': 19.0, '_2': 22.0}], '1': [{'_1': 11.5, '_2': 15.5}, {'_1': 19.0, '_2': 22.0}], '2': [{'_1': 11.5, '_2': 15.5}, {'_1': 19.0, '_2': 22.0}], '3': [{'_1': 11.5, '_2': 15.5}, {'_1': 19.0, '_2': 22.0}], '4': [{'_1': 11.5, '_2': 15.5}, {'_1': 19.0, '_2': 22.0}], '5': [{'_1': 11.5, '_2': 15.5}, {'_1': 19.0, '_2': 22.0}], '6': [{'_1': 13.0, '_2': 15.5}, {'_1': 19.0, '_2': 22.0}]}",0.0,60
70,ChIJqc_f-F5C5kcRpJ6bZHOH1LI,49.0400309,2.340864100000001,Le Tokyo,"{'0': [], '1': [{'_1': 12.0, '_2': 14.75}, {'_1': 19.0, '_2': 22.0}], '2': [{'_1': 12.0, '_2': 14.75}, {'_1': 19.0, '_2': 22.0}], '3': [{'_1': 12.0, '_2': 14.75}, {'_1': 19.0, '_2': 22.0}], '4': [{'_1': 12.0, '_2': 14.75}, {'_1': 19.0, '_2': 22.0}], '5': [{'_1': 12.0, '_2': 14.75}, {'_1': 19.0, '_2': 22.0}], '6': [{'_1': 12.0, '_2': 14.75}, {'_1': 19.0, '_2': 22.0}]}",3.0,60
71,ChIJb2hJfwVu5kcRObqnEi31ND4,48.8657028,2.3592274,La Crêperie Du Marais,"{'0': [], '1': [], '2': [], '3': [], '4': [], '5': [], '6': []}",0.0,60
72,ChIJje57iBRu5kcRrB0TY4Pe278,48.8738548,2.350811,LA RÉCLAME,"{'0': [], '1': [], '2': [{'_1': 11.5, '_2': 19.5}], '3': [{'_1': 11.5, '_2': 19.5}], '4': [{'_1': 11.5, '_2': 19.5}], '5': [{'_1': 11.5, '_2': 19.5}], '6': [{'_1': 11.5, '_2': 19.5}]}",4.9,60
73,ChIJcch4_Atu5kcRprD8xIA4LsU,48.8712616,2.363077,Bar Carrouf Centre Commercial,"{'0': [], '1': [], '2': [], '3': [], '4': [], '5': [], '6': []}",0.0,60
74,ChIJLya87hpu5kcRTUlhywh-FI4,48.8645053,2.3545867,Bob's Kitchen,"{'0': [{'_1': 8.0, '_2': 16.0}], '1': [{'_1': 8.0, '_2': 15.0}], '2': [{'_1': 8.0, '_2': 15.0}], '3': [{'_1': 8.0, '_2': 15.0}], '4': [{'_1': 8.0, '_2': 15.0}], '5': [{'_1': 8.0, '_2': 15.0}], '6': [{'_1': 8.0, '_2': 16.0}]}",4.4,60
75,ChIJ33WDYhlu5kcRv3PSXxJ-RZ4,48.862498,2.3500476,Shisha,"{'0': [], '1': [], '2': [], '3': [], '4': [], '5': [], '6': []}",3.5,60
76,ChIJTVqiSOZt5kcRM_OFtqmzF6c,48.8725592,2.3781437,Thierry Meunier,"{'0': [], '1': [], '2': [], '3': [], '4': [], '5': [], '6': []}",2.2,60
77,ChIJj3lYxgtu5kcRxkM8WlsvE88,48.87161719999999,2.364494,Cafe Chez Prune,"{'0': [], '1': [], '2': [], '3': [], '4': [], '5': [], '6': []}",3.0,60
78,ChIJ52xWE_1t5kcRjZMo9suaRl8,48.8641484,2.3689476,Au King Délice,"{'0': [], '1': [], '2': [], '3': [], '4': [], '5': [], '6': []}",3.0,60
79,ChIJ9RYolxFu5kcROJPOo3W7HF8,48.870069,2.354985,Le Globo,"{'0': [{'_1': 0.0, '_2': 6.0}], '1': [], '2': [], '3': [], '4': [], '5': [{'_1': 23.75, '_2': 24.0}], '6': [{'_1': 0.0, '_2': 6.0}, {'_1': 23.75, '_2': 24.0}]}",2.8,60
80,ChIJwS3QNltt5kcRF-RKsBudhM8,48.8638074,2.4425076,Sandwicherie Le Prestige,"{'0': [{'_1': 9.0, '_2': 24.0}, {'_1': 0.0, '_2': 1.0}], '1': [{'_1': 0.0, '_2': 1.0}, {'_1': 9.0, '_2': 24.0}], '2': [{'_1': 0.0, '_2': 1.0}, {'_1': 9.0, '_2': 24.0}], '3': [{'_1': 0.0, '_2': 1.0}, {'_1': 9.0, '_2': 24.0}], '4': [{'_1': 0.0, '_2': 1.0}, {'_1': 9.0, '_2': 24.0}], '5': [{'_1': 0.0, '_2': 1.0}, {'_1': 9.0, '_2': 24.0}], '6': [{'_1': 0.0, '_2': 1.0}, {'_1': 9.0, '_2': 24.0}]}",4.3,60
81,ChIJbchV6ZBx5kcRbcp3dkbwFUg,48.8275832,2.349423,L'Artisan,"{'0': [{'_1': 6.0, '_2': 23.0}], '1': [], '2': [], '3': [{'_1': 6.0, '_2': 23.0}], '4': [{'_1': 6.0, '_2': 23.0}], '5': [{'_1': 6.0, '_2': 23.0}], '6': [{'_1': 6.0, '_2': 23.0}]}",3.8,60
82,ChIJMSlUhBlu5kcR5GMkrBZfU-U,48.8640017,2.3503816,Sushi Bonheur,"{'0': [], '1': [], '2': [], '3': [], '4': [], '5': [], '6': []}",0.0,60
83,ChIJd1ypyABy5kcR-RcvyT-I3Ec,48.854169,2.3717006,Mégalo Bar,"{'0': [], '1': [], '2': [], '3': [], '4': [], '5': [], '6': []}",4.0,60
84,ChIJ3fKQTxBu5kcRnFe6gwJUPe0,48.8680325,2.3548137,Chez Beto,"{'0': [], '1': [], '2': [], '3': [], '4': [], '5': [], '6': []}",0.0,60
85,ChIJGbFqiC9u5kcR0nLp3lnjiAc,48.864718,2.333787,Sanukiya,"{'0': [{'_1': 11.5, '_2': 22.0}], '1': [{'_1': 11.5, '_2': 22.0}], '2': [{'_1': 11.5, '_2': 22.0}], '3': [{'_1': 11.5, '_2': 22.0}], '4': [{'_1': 11.5, '_2': 22.0}], '5': [{'_1': 11.5, '_2': 22.0}], '6': [{'_1': 11.5, '_2': 22.0}]}",4.5,60
86,ChIJS_hANgVu5kcRZKjdafwk-Fg,48.8647245,2.3567826,Song Heng Restaurant,"{'0': [], '1': [{'_1': 11.0, '_2': 16.0}], '2': [{'_1': 11.0, '_2': 16.0}], '3': [{'_1': 11.0, '_2': 16.0}], '4': [{'_1': 11.0, '_2': 16.0}], '5': [{'_1': 11.0, '_2': 16.0}], '6': [{'_1': 11.0, '_2': 16.0}]}",4.5,60
87,ChIJ758YBhlu5kcRR_ED10akqVM,48.86345900000001,2.3485423,ROOMIES,"{'0': [{'_1': 12.0, '_2': 16.0}], '1': [{'_1': 12.0, '_2': 14.5}, {'_1': 19.5, '_2': 22.5}], '2': [{'_1': 12.0, '_2': 14.5}, {'_1': 19.5, '_2': 22.5}], '3': [{'_1': 12.0, '_2': 14.5}, {'_1': 19.5, '_2': 22.5}], '4': [{'_1': 12.0, '_2': 14.5}, {'_1': 19.5, '_2': 22.5}], '5': [{'_1': 12.0, '_2': 14.5}, {'_1': 19.5, '_2': 22.5}], '6': [{'_1': 12.0, '_2': 22.5}]}",4.6,60
88,ChIJ_R5IrTxy5kcRE7FDFiStdKg,48.8311178,2.3751635,Sushi Story,"{'0': [{'_1': 19.0, '_2': 23.0}], '1': [{'_1': 12.0, '_2': 15.0}, {'_1': 19.0, '_2': 23.0}], '2': [{'_1': 12.0, '_2': 15.0}, {'_1': 19.0, '_2': 23.0}], '3': [{'_1': 12.0, '_2': 15.0}, {'_1': 19.0, '_2': 23.0}], '4': [{'_1': 12.0, '_2': 15.0}, {'_1': 19.0, '_2': 23.0}], '5': [{'_1': 12.0, '_2': 15.0}, {'_1': 19.0, '_2': 23.0}], '6': [{'_1': 12.0, '_2': 15.0}, {'_1': 19.0, '_2': 23.0}]}",3.3,60
89,ChIJrRVPyhpu5kcR-f4ErjAuxHs,48.8647398,2.3561658,Piu Cai Xiaolai,"{'0': [], '1': [], '2': [], '3': [], '4': [], '5': [], '6': []}",4.0,60
90,ChIJI8Aj2cNt5kcRmAdZ3uSfYls,48.8789257,2.3855222,Take Took,"{'0': [{'_1': 11.5, '_2': 15.0}, {'_1': 18.0, '_2': 23.0}], '1': [{'_1': 11.5, '_2': 15.0}, {'_1': 18.0, '_2': 22.5}], '2': [{'_1': 11.5, '_2': 15.0}, {'_1': 18.0, '_2': 22.5}], '3': [{'_1': 11.5, '_2': 15.0}, {'_1': 18.0, '_2': 22.5}], '4': [{'_1': 11.5, '_2': 15.0}, {'_1': 18.0, '_2': 22.5}], '5': [{'_1': 11.5, '_2': 15.0}], '6': [{'_1': 19.5, '_2': 23.0}]}",4.3,60
91,ChIJT78RxHVu5kcRZoDCLEKfs3M,48.881275,2.368342,Point Éphémère,"{'0': [{'_1': 12.5, '_2': 22.0}, {'_1': 0.0, '_2': 2.0}], '1': [{'_1': 12.5, '_2': 24.0}], '2': [{'_1': 0.0, '_2': 2.0}, {'_1': 12.5, '_2': 24.0}], '3': [{'_1': 0.0, '_2': 2.0}, {'_1': 12.5, '_2': 24.0}], '4': [{'_1': 0.0, '_2': 2.0}, {'_1': 12.5, '_2': 24.0}], '5': [{'_1': 0.0, '_2': 2.0}, {'_1': 12.5, '_2': 24.0}], '6': [{'_1': 0.0, '_2': 2.0}, {'_1': 12.5, '_2': 24.0}]}",4.0,60
92,ChIJvZd1SxFu5kcRBjMtqzx-AMY,48.87018,2.351406,AVLI,"{'0': [{'_1': 12.0, '_2': 16.0}], '1': [{'_1': 12.0, '_2': 15.5}, {'_1': 19.0, '_2': 23.5}], '2': [{'_1': 12.0, '_2': 15.5}, {'_1': 19.0, '_2': 24.0}], '3': [{'_1': 12.0, '_2': 15.5}, {'_1': 19.0, '_2': 23.5}], '4': [{'_1': 12.0, '_2': 15.5}, {'_1': 19.0, '_2': 23.5}], '5': [{'_1': 12.0, '_2': 15.5}, {'_1': 19.0, '_2': 24.0}], '6': [{'_1': 12.0, '_2': 15.5}, {'_1': 19.0, '_2': 24.0}]}",4.7,60
93,ChIJnXSqHhpu5kcRld-qb_DmD_4,48.8652938,2.3511343,L'Impact,"{'0': [{'_1': 15.0, '_2': 24.0}, {'_1': 0.0, '_2': 6.0}], '1': [{'_1': 0.0, '_2': 2.0}, {'_1': 19.0, '_2': 24.0}], '2': [{'_1': 0.0, '_2': 2.0}, {'_1': 19.0, '_2': 24.0}], '3': [{'_1': 0.0, '_2': 2.0}, {'_1': 19.0, '_2': 24.0}], '4': [{'_1': 0.0, '_2': 2.0}, {'_1': 19.0, '_2': 24.0}], '5': [{'_1': 0.0, '_2': 2.0}, {'_1': 22.0, '_2': 24.0}], '6': [{'_1': 0.0, '_2': 6.0}, {'_1': 22.0, '_2': 24.0}]}",3.1,60
94,ChIJ_fBHmZly5kcRySCzLU0oB84,48.846607,2.4291459,Le Coste Bleu,"{'0': [], '1': [], '2': [], '3': [], '4': [], '5': [], '6': []}",0.0,60
95,ChIJ-dSLUAVu5kcRKxLJKe_zLvA,48.8655741,2.3571199,Les Quatre Saisons,"{'0': [], '1': [], '2': [], '3': [], '4': [], '5': [], '6': []}",0.0,60
96,ChIJLyfpxTZu5kcRCsrIf9KuXfI,48.8721016,2.3304692,Boutique Nespresso Paris Opéra,"{'0': [], '1': [{'_1': 10.0, '_2': 19.0}], '2': [{'_1': 10.0, '_2': 19.0}], '3': [{'_1': 10.0, '_2': 19.0}], '4': [{'_1': 10.0, '_2': 20.0}], '5': [{'_1': 10.0, '_2': 19.0}], '6': [{'_1': 10.0, '_2': 19.0}]}",4.1,60
97,ChIJYSg8P15C5kcRzs_U62n8WAo,49.0389926,2.3409569,BCHEF,"{'0': [{'_1': 10.0, '_2': 19.0}], '1': [{'_1': 10.0, '_2': 19.0}], '2': [{'_1': 10.0, '_2': 19.0}], '3': [{'_1': 10.0, '_2': 19.0}], '4': [{'_1': 10.0, '_2': 19.0}], '5': [{'_1': 10.0, '_2': 19.0}], '6': [{'_1': 10.0, '_2': 19.0}]}",3.3,60
98,ChIJYYBcCz5u5kcRNpZ-ZV7k9bc,48.8716115,2.344400899999999,Christeph,"{'0': [], '1': [], '2': [], '3': [], '4': [], '5': [], '6': []}",0.0,60
99,ChIJU5XcSAVu5kcR3OvLfOnBf-I,48.865049,2.356945,Le Temple Celeste,"{'0': [], '1': [], '2': [], '3': [], '4': [], '5': [], '6': []}",4.4,60
100,ChIJgQfCkxNu5kcRcQi5NxUc9C8,48.8726037,2.3525127,Les P'tites Poules,"{'0': [], '1': [], '2': [], '3': [], '4': [], '5': [], '6': []}",4.3,60
101,ChIJ63_5-ZBx5kcRB4qBeL3cXvk,48.8278386,2.3502212,Les Tanneurs de la Butte,"{'0': [{'_1': 8.0, '_2': 12.0}], '1': [{'_1': 8.0, '_2': 12.0}], '2': [{'_1': 8.0, '_2': 12.0}], '3': [{'_1': 8.0, '_2': 12.0}], '4': [{'_1': 8.0, '_2': 12.0}], '5': [{'_1': 8.0, '_2': 12.0}], '6': [{'_1': 8.0, '_2': 12.0}]}",3.6,60
102,ChIJc5RH0Jty5kcRvKaBQNa1Gos,48.8475534,2.4275848,Génération Sushi - Vincennes,"{'0': [], '1': [], '2': [], '3': [], '4': [], '5': [], '6': []}",0.0,60
103,ChIJebyrpdfd4EcRVqZO3bHuYcc,49.44358489999999,1.0939029,le socrate,"{'0': [], '1': [{'_1': 7.5, '_2': 20.0}], '2': [{'_1': 7.5, '_2': 20.0}], '3': [{'_1': 7.5, '_2': 20.0}], '4': [{'_1': 7.5, '_2': 20.0}], '5': [{'_1': 7.5, '_2': 20.0}], '6': [{'_1': 7.5, '_2': 20.0}]}",3.2,60
104,ChIJ283JpRdu5kcR0chYrgjudgI,48.86797439999999,2.3478599,La Cantine des Mama's,"{'0': [{'_1': 11.5, '_2': 15.0}, {'_1': 19.0, '_2': 23.0}], '1': [{'_1': 11.5, '_2': 15.0}, {'_1': 19.0, '_2': 23.0}], '2': [{'_1': 11.5, '_2': 15.0}, {'_1': 19.0, '_2': 23.0}], '3': [{'_1': 11.5, '_2': 15.0}, {'_1': 19.0, '_2': 23.0}], '4': [{'_1': 11.5, '_2': 15.0}, {'_1': 19.0, '_2': 23.0}], '5': [{'_1': 11.5, '_2': 15.0}, {'_1': 19.0, '_2': 23.0}], '6': [{'_1': 19.0, '_2': 23.0}]}",4.5,60
105,ChIJi8UjncJt5kcRSeMwbZobDBw,48.8757844,2.3818555,BOTZARIS CAFE,"{'0': [{'_1': 7.0, '_2': 24.0}, {'_1': 0.0, '_2': 2.0}], '1': [{'_1': 0.0, '_2': 2.0}, {'_1': 7.0, '_2': 24.0}], '2': [{'_1': 0.0, '_2': 2.0}, {'_1': 7.0, '_2': 24.0}], '3': [{'_1': 0.0, '_2': 2.0}, {'_1': 7.0, '_2': 24.0}], '4': [{'_1': 0.0, '_2': 2.0}, {'_1': 7.0, '_2': 24.0}], '5': [{'_1': 0.0, '_2': 2.0}, {'_1': 7.0, '_2': 24.0}], '6': [{'_1': 0.0, '_2': 2.0}, {'_1': 7.0, '_2': 24.0}]}",4.1,60
106,ChIJMWWzWRFu5kcR6gWgD-YgUnY,48.87106,2.3520198,La Mécanique des Fluides,"{'0': [{'_1': 17.0, '_2': 24.0}, {'_1': 0.0, '_2': 2.0}], '1': [{'_1': 0.0, '_2': 2.0}, {'_1': 17.0, '_2': 24.0}], '2': [{'_1': 0.0, '_2': 2.0}, {'_1': 17.0, '_2': 24.0}], '3': [{'_1': 0.0, '_2': 2.0}, {'_1': 17.0, '_2': 24.0}], '4': [{'_1': 0.0, '_2': 2.0}, {'_1': 17.0, '_2': 24.0}], '5': [{'_1': 0.0, '_2': 2.0}, {'_1': 17.0, '_2': 24.0}], '6': [{'_1': 0.0, '_2': 2.0}, {'_1': 17.0, '_2': 24.0}]}",4.3,60
107,ChIJ-5Isx9ht5kcRv0flTqjQnIY,48.8817343,2.370580299999999,L'imprévu,"{'0': [{'_1': 0.0, '_2': 2.0}], '1': [{'_1': 6.0, '_2': 24.0}], '2': [{'_1': 0.0, '_2': 2.0}, {'_1': 6.0, '_2': 24.0}], '3': [{'_1': 0.0, '_2': 2.0}, {'_1': 6.0, '_2': 24.0}], '4': [{'_1': 0.0, '_2': 2.0}, {'_1': 6.0, '_2': 24.0}], '5': [{'_1': 0.0, '_2': 2.0}, {'_1': 6.0, '_2': 24.0}], '6': [{'_1': 0.0, '_2': 2.0}, {'_1': 6.0, '_2': 24.0}]}",4.4,60
108,ChIJr6xW1xlu5kcRBTKkMbO-wMw,48.8659149,2.3487515,Le 23,"{'0': [{'_1': 0.0, '_2': 2.0}], '1': [], '2': [{'_1': 18.0, '_2': 24.0}], '3': [{'_1': 18.0, '_2': 24.0}], '4': [{'_1': 18.0, '_2': 24.0}], '5': [{'_1': 0.0, '_2': 2.0}, {'_1': 18.0, '_2': 24.0}], '6': [{'_1': 0.0, '_2': 2.0}, {'_1': 18.0, '_2': 24.0}]}",4.6,60
109,ChIJiQxv_05u5kcRVgBpkRINVYw,48.8838498,2.3270363,Quick,"{'0': [{'_1': 8.0, '_2': 24.0}, {'_1': 0.0, '_2': 1.5}], '1': [{'_1': 0.0, '_2': 1.0}, {'_1': 8.0, '_2': 24.0}], '2': [{'_1': 0.0, '_2': 1.0}, {'_1': 8.0, '_2': 24.0}], '3': [{'_1': 0.0, '_2': 1.0}, {'_1': 8.0, '_2': 24.0}], '4': [{'_1': 0.0, '_2': 1.0}, {'_1': 8.0, '_2': 24.0}], '5': [{'_1': 0.0, '_2': 1.0}, {'_1': 8.0, '_2': 24.0}], '6': [{'_1': 0.0, '_2': 1.5}, {'_1': 8.0, '_2': 24.0}]}",2.5,60
110,ChIJw2xgiC9u5kcRTolt7EYoGVQ,48.8646997,2.333746399999999,さぬき屋,"{'0': [], '1': [], '2': [], '3': [], '4': [], '5': [], '6': []}",4.5,60
111,ChIJF35ZZw9u5kcRfvosd86qDLc,48.8663884,2.3607865,B. Bell broche,"{'0': [], '1': [{'_1': 12.0, '_2': 18.0}], '2': [{'_1': 12.0, '_2': 18.0}], '3': [{'_1': 12.0, '_2': 18.0}], '4': [{'_1': 12.0, '_2': 18.0}], '5': [{'_1': 12.0, '_2': 18.0}], '6': [{'_1': 12.0, '_2': 18.0}]}",4.6,60
112,ChIJU83rGE1u5kcRtgu_lG89Fuk,48.8847582,2.3258054,La Passerelle,"{'0': [], '1': [], '2': [], '3': [], '4': [], '5': [], '6': []}",5.0,60
113,ChIJZ5cVNhJu5kcRrY5om-5nB0c,48.8723167,2.3546594,Epicerie Julhès 17/20,"{'0': [], '1': [], '2': [], '3': [], '4': [], '5': [], '6': []}",0.0,60
114,ChIJk3AugCVu5kcR90UM1BzDWLo,48.8641707,2.3338069,Dragon Palais Royal,"{'0': [], '1': [], '2': [], '3': [], '4': [], '5': [], '6': []}",1.0,60
115,ChIJSY43_hFu5kcRI8m1qNLL-94,48.87086289999999,2.3568502,Chevalier Michèle,"{'0': [], '1': [], '2': [], '3': [], '4': [], '5': [], '6': []}",0.0,60
116,ChIJ45EKQt1t5kcRI07JqS6AhzM,48.87654149999999,2.3784971,Soteris Mickael,"{'0': [], '1': [], '2': [], '3': [], '4': [], '5': [], '6': []}",0.0,60
117,ChIJW2Ovg-ht5kcRsDTuzLmgpc8,48.8727489,2.3797365,Yahiaoui Fatiha,"{'0': [{'_1': 6.5, '_2': 21.0}], '1': [], '2': [{'_1': 6.5, '_2': 21.0}], '3': [{'_1': 6.5, '_2': 21.0}], '4': [{'_1': 6.5, '_2': 21.0}], '5': [{'_1': 6.5, '_2': 21.0}], '6': [{'_1': 6.5, '_2': 21.0}]}",3.5,60
118,ChIJfdnlmhlu5kcR45jLZhnWHmM,48.8641825,2.349728,Anthony,"{'0': [], '1': [], '2': [], '3': [], '4': [], '5': [], '6': []}",0.0,60
119,ChIJfVPskJly5kcRKTliKVtYs7Q,48.8461048,2.4288356,Le Berlioz,"{'0': [], '1': [], '2': [], '3': [], '4': [], '5': [], '6': []}",3.6,60
120,ChIJR_70Khhu5kcRjTC-rMnLht4,48.8660195,2.3478924,Madame Croque Monsieur,"{'0': [{'_1': 10.0, '_2': 15.0}], '1': [{'_1': 10.0, '_2': 22.0}], '2': [{'_1': 10.0, '_2': 22.0}], '3': [{'_1': 10.0, '_2': 22.0}], '4': [{'_1': 10.0, '_2': 22.0}], '5': [{'_1': 10.0, '_2': 22.0}], '6': [{'_1': 10.0, '_2': 22.0}]}",3.0,60
121,ChIJJX_2Zg5u5kcR_GLdvrwwiGw,48.8699896,2.3591383,La Dispensa,"{'0': [], '1': [], '2': [{'_1': 12.5, '_2': 15.0}, {'_1': 19.0, '_2': 22.5}], '3': [{'_1': 12.5, '_2': 15.0}, {'_1': 19.0, '_2': 22.5}], '4': [{'_1': 12.5, '_2': 15.0}, {'_1': 19.0, '_2': 22.5}], '5': [{'_1': 12.5, '_2': 15.0}, {'_1': 19.0, '_2': 22.5}], '6': [{'_1': 12.5, '_2': 15.0}, {'_1': 19.0, '_2': 22.5}]}",4.7,60
122,ChIJ98uHfXRy5kcR74NbqToESkc,48.850658,2.3917959,La Crêperie,"{'0': [], '1': [], '2': [], '3': [], '4': [], '5': [], '6': []}",0.0,60
123,ChIJ__-Taw9u5kcRLoZng2N9zTE,48.8670111,2.3605285,Two Coworking - Restaurant,"{'0': [], '1': [{'_1': 8.0, '_2': 19.0}], '2': [{'_1': 8.0, '_2': 19.0}], '3': [{'_1': 8.0, '_2': 23.0}], '4': [{'_1': 8.0, '_2': 23.0}], '5': [{'_1': 8.0, '_2': 23.0}], '6': [{'_1': 10.0, '_2': 23.0}]}",5.0,60
124,ChIJF_DrCQtu5kcRg88oK6BS03Q,48.873503,2.364797,Ten Belles,"{'0': [{'_1': 9.0, '_2': 18.0}], '1': [{'_1': 8.0, '_2': 17.0}], '2': [{'_1': 8.0, '_2': 17.0}], '3': [{'_1': 8.0, '_2': 17.0}], '4': [{'_1': 8.0, '_2': 17.0}], '5': [{'_1': 8.0, '_2': 17.0}], '6': [{'_1': 9.0, '_2': 18.0}]}",4.3,60
125,ChIJQTGgKNlx5kcRoxWsu_G3VEw,48.8536445,2.3378805,Zk,"{'0': [], '1': [], '2': [], '3': [], '4': [], '5': [], '6': []}",3.0,60
126,ChIJt_haJ9lx5kcRufT6jW468T4,48.853737,2.337642,L'Atlas,"{'0': [{'_1': 7.0, '_2': 24.0}, {'_1': 0.0, '_2': 2.0}], '1': [{'_1': 0.0, '_2': 2.0}, {'_1': 7.0, '_2': 24.0}], '2': [{'_1': 0.0, '_2': 2.0}, {'_1': 7.0, '_2': 24.0}], '3': [{'_1': 0.0, '_2': 2.0}, {'_1': 7.0, '_2': 24.0}], '4': [{'_1': 0.0, '_2': 2.0}, {'_1': 7.0, '_2': 24.0}], '5': [{'_1': 0.0, '_2': 2.0}, {'_1': 7.0, '_2': 24.0}], '6': [{'_1': 0.0, '_2': 2.0}, {'_1': 7.0, '_2': 24.0}]}",3.0,60
127,ChIJfSTnshNu5kcRQyvp_iUCyYk,48.8728117,2.3541589,Ngoun Heng,"{'0': [], '1': [], '2': [], '3': [], '4': [], '5': [], '6': []}",5.0,60
128,ChIJDac3ahFu5kcRTrL2hf-Cm9Q,48.87012310000001,2.3527383,Art Kebab,"{'0': [{'_1': 11.0, '_2': 24.0}, {'_1': 0.0, '_2': 1.0}], '1': [{'_1': 11.0, '_2': 24.0}], '2': [{'_1': 0.0, '_2': 1.0}, {'_1': 11.0, '_2': 24.0}], '3': [{'_1': 0.0, '_2': 1.0}, {'_1': 11.0, '_2': 24.0}], '4': [{'_1': 0.0, '_2': 1.0}, {'_1': 11.0, '_2': 24.0}], '5': [{'_1': 0.0, '_2': 1.0}, {'_1': 11.0, '_2': 24.0}], '6': [{'_1': 0.0, '_2': 1.0}, {'_1': 11.0, '_2': 24.0}]}",3.9,60
129,ChIJO87vOl9C5kcRmHuH3LsdedQ,49.039892,2.341307,Coffea,"{'0': [], '1': [{'_1': 9.0, '_2': 20.0}], '2': [{'_1': 9.0, '_2': 20.0}], '3': [{'_1': 9.0, '_2': 20.0}], '4': [{'_1': 9.0, '_2': 20.0}], '5': [{'_1': 9.0, '_2': 21.0}], '6': [{'_1': 9.0, '_2': 20.0}]}",0.0,60
130,ChIJMeUXCi9u5kcR1kJ-cbDL4TI,48.86453239999999,2.3324534,El Tonel,"{'0': [{'_1': 16.0, '_2': 24.0}], '1': [{'_1': 11.0, '_2': 24.0}], '2': [{'_1': 0.0, '_2': 2.0}, {'_1': 11.0, '_2': 24.0}], '3': [{'_1': 0.0, '_2': 2.0}, {'_1': 11.0, '_2': 24.0}], '4': [{'_1': 0.0, '_2': 2.0}, {'_1': 11.0, '_2': 24.0}], '5': [{'_1': 0.0, '_2': 2.0}, {'_1': 11.0, '_2': 24.0}], '6': [{'_1': 0.0, '_2': 2.0}, {'_1': 16.0, '_2': 24.0}]}",4.2,60
131,ChIJ9fr3dxlu5kcRfPZONoLbfKA,48.86362459999999,2.349986899999999,Gard Du Nord,"{'0': [], '1': [], '2': [], '3': [], '4': [], '5': [], '6': []}",0.0,60
132,ChIJIwDp4Q5u5kcReEJkb-lOKHo,48.8681071,2.3603397,Ti' Cap,"{'0': [{'_1': 0.0, '_2': 2.0}], '1': [{'_1': 16.0, '_2': 24.0}], '2': [{'_1': 0.0, '_2': 2.0}, {'_1': 16.0, '_2': 24.0}], '3': [{'_1': 0.0, '_2': 2.0}, {'_1': 16.0, '_2': 24.0}], '4': [{'_1': 0.0, '_2': 2.0}, {'_1': 16.0, '_2': 24.0}], '5': [{'_1': 0.0, '_2': 2.0}, {'_1': 16.0, '_2': 24.0}], '6': [{'_1': 0.0, '_2': 2.0}, {'_1': 16.0, '_2': 24.0}]}",4.4,60
133,ChIJqdrEITpu5kcR6etYVcwCEow,48.871415,2.335572,Le Paradis du Fruit,"{'0': [{'_1': 12.0, '_2': 24.0}, {'_1': 0.0, '_2': 1.0}], '1': [{'_1': 0.0, '_2': 1.0}, {'_1': 12.0, '_2': 24.0}], '2': [{'_1': 0.0, '_2': 1.0}, {'_1': 12.0, '_2': 24.0}], '3': [{'_1': 0.0, '_2': 1.0}, {'_1': 12.0, '_2': 24.0}], '4': [{'_1': 0.0, '_2': 1.0}, {'_1': 12.0, '_2': 24.0}], '5': [{'_1': 0.0, '_2': 1.0}, {'_1': 12.0, '_2': 24.0}], '6': [{'_1': 0.0, '_2': 1.0}, {'_1': 12.0, '_2': 24.0}]}",3.6,60
134,ChIJl-VN8JBx5kcRRbjy90XGN7w,48.8276645,2.3499741,Chez Michel,"{'0': [{'_1': 16.0, '_2': 24.0}, {'_1': 0.0, '_2': 2.0}], '1': [{'_1': 0.0, '_2': 2.0}, {'_1': 16.0, '_2': 24.0}], '2': [{'_1': 0.0, '_2': 2.0}, {'_1': 16.0, '_2': 24.0}], '3': [{'_1': 0.0, '_2': 2.0}, {'_1': 16.0, '_2': 24.0}], '4': [{'_1': 0.0, '_2': 2.0}, {'_1': 16.0, '_2': 24.0}], '5': [{'_1': 0.0, '_2': 2.0}, {'_1': 16.0, '_2': 24.0}], '6': [{'_1': 0.0, '_2': 2.0}, {'_1': 16.0, '_2': 24.0}]}",4.1,60
135,ChIJAQCci5ly5kcRl1Tvf2lRPcE,48.84586319999999,2.4282378,Boulangerie et Pâtisserie Lohezic,"{'0': [], '1': [{'_1': 6.5, '_2': 20.0}], '2': [{'_1': 6.5, '_2': 20.0}], '3': [{'_1': 6.5, '_2': 20.0}], '4': [{'_1': 6.5, '_2': 20.0}], '5': [{'_1': 6.5, '_2': 20.0}], '6': [{'_1': 7.0, '_2': 16.0}]}",0.0,60
136,ChIJRb8x6zZu5kcROFmVh50cBQE,48.8730761,2.3304175,Maison de la truffe,"{'0': [], '1': [], '2': [], '3': [], '4': [], '5': [], '6': []}",0.0,60
137,ChIJyyOYtBNu5kcRiAW-Vb0uEhI,48.87267,2.3541597,L'Horloge,"{'0': [], '1': [], '2': [], '3': [], '4': [], '5': [], '6': []}",0.0,60
138,ChIJ7dOnTgVu5kcRCpwSUgDiv68,48.86514129999999,2.356802199999999,La Cave à Jiu,"{'0': [], '1': [], '2': [], '3': [], '4': [], '5': [], '6': []}",5.0,60
139,ChIJVdVj2hFu5kcRNdzxTV5JI2o,48.8692618,2.3562668,Rori Sarl,"{'0': [], '1': [], '2': [], '3': [], '4': [], '5': [], '6': []}",0.0,60
140,ChIJt5-cPf1t5kcRam5BVr5baMM,48.8646389,2.3695845,L'embuscade,"{'0': [{'_1': 8.0, '_2': 24.0}, {'_1': 0.0, '_2': 2.0}], '1': [{'_1': 0.0, '_2': 2.0}, {'_1': 8.0, '_2': 24.0}], '2': [{'_1': 0.0, '_2': 2.0}, {'_1': 8.0, '_2': 24.0}], '3': [{'_1': 0.0, '_2': 2.0}, {'_1': 8.0, '_2': 24.0}], '4': [{'_1': 0.0, '_2': 2.0}, {'_1': 8.0, '_2': 24.0}], '5': [{'_1': 0.0, '_2': 2.0}, {'_1': 8.0, '_2': 24.0}], '6': [{'_1': 0.0, '_2': 2.0}, {'_1': 8.0, '_2': 24.0}]}",4.3,60
141,ChIJ06Nta_1t5kcRd-VrTebXWi0,48.8642634,2.3689314,Boulangerie Pâtisserie Gaïa,"{'0': [], '1': [], '2': [], '3': [], '4': [], '5': [], '6': []}",4.5,60
142,ChIJnXAD6Rpu5kcREwPY6vMRCw8,48.8643201,2.354607300000001,Chez Li,"{'0': [], '1': [], '2': [], '3': [], '4': [], '5': [], '6': []}",4.7,60
143,ChIJDYpRKOZt5kcRAJ7u-C5YWpo,48.8726365,2.3794399,Zhu,"{'0': [], '1': [], '2': [], '3': [], '4': [], '5': [], '6': []}",0.0,60
144,ChIJEcJkgeht5kcRyjJUHjLR19k,48.8730903,2.3797273,Le Pacifique,"{'0': [{'_1': 11.0, '_2': 24.0}, {'_1': 0.0, '_2': 2.0}], '1': [{'_1': 0.0, '_2': 2.0}, {'_1': 11.0, '_2': 24.0}], '2': [{'_1': 0.0, '_2': 2.0}, {'_1': 11.0, '_2': 24.0}], '3': [{'_1': 0.0, '_2': 2.0}, {'_1': 11.0, '_2': 24.0}], '4': [{'_1': 0.0, '_2': 2.0}, {'_1': 11.0, '_2': 24.0}], '5': [{'_1': 0.0, '_2': 2.0}, {'_1': 11.0, '_2': 24.0}], '6': [{'_1': 0.0, '_2': 2.0}, {'_1': 11.0, '_2': 24.0}]}",4.0,60
145,ChIJF1uNNgVu5kcRJi3on_IHBZU,48.864703,2.3569476,Feng Sheng,"{'0': [], '1': [], '2': [], '3': [], '4': [], '5': [], '6': []}",3.7,60
146,ChIJd9_vwxFu5kcR6v0OJsDK_SU,48.86951389999999,2.355686299999999,Baranaan Indian Cocktail,"{'0': [{'_1': 0.0, '_2': 4.0}], '1': [], '2': [{'_1': 18.5, '_2': 24.0}], '3': [{'_1': 0.0, '_2': 2.0}, {'_1': 18.5, '_2': 24.0}], '4': [{'_1': 0.0, '_2': 2.0}, {'_1': 18.5, '_2': 24.0}], '5': [{'_1': 0.0, '_2': 2.0}, {'_1': 18.5, '_2': 24.0}], '6': [{'_1': 0.0, '_2': 4.0}, {'_1': 18.5, '_2': 24.0}]}",4.2,60
147,ChIJVeblvxtu5kcRzTDPDPeHKFg,48.8625304,2.352221399999999,La Mutinerie,"{'0': [{'_1': 17.0, '_2': 24.0}, {'_1': 0.0, '_2': 2.0}], '1': [{'_1': 0.0, '_2': 2.0}, {'_1': 17.0, '_2': 24.0}], '2': [{'_1': 0.0, '_2': 2.0}, {'_1': 17.0, '_2': 24.0}], '3': [{'_1': 0.0, '_2': 2.0}, {'_1': 17.0, '_2': 24.0}], '4': [{'_1': 0.0, '_2': 2.0}, {'_1': 17.0, '_2': 24.0}], '5': [{'_1': 0.0, '_2': 2.0}, {'_1': 17.0, '_2': 24.0}], '6': [{'_1': 0.0, '_2': 2.0}, {'_1': 17.0, '_2': 24.0}]}",4.0,60
148,ChIJxeWYERlu5kcRoIn7ihRv5vI,48.8630571,2.3488926,Ari's Bagels,"{'0': [{'_1': 11.0, '_2': 18.0}], '1': [{'_1': 9.0, '_2': 18.5}], '2': [{'_1': 9.0, '_2': 18.5}], '3': [{'_1': 9.0, '_2': 20.5}], '4': [{'_1': 9.0, '_2': 20.5}], '5': [{'_1': 9.0, '_2': 20.5}], '6': [{'_1': 10.5, '_2': 20.5}]}",4.5,60
149,ChIJi5pk4MNt5kcRubGwgtFOMV8,48.87933919999999,2.385656,L'Olympe,"{'0': [{'_1': 8.0, '_2': 24.0}], '1': [{'_1': 8.0, '_2': 24.0}], '2': [{'_1': 8.0, '_2': 24.0}], '3': [{'_1': 8.0, '_2': 24.0}], '4': [{'_1': 8.0, '_2': 24.0}], '5': [{'_1': 8.0, '_2': 24.0}], '6': [{'_1': 8.0, '_2': 24.0}]}",4.3,60
150,ChIJ7yo_IMFt5kcRs01VFqTTAng,48.8793131,2.3884632,Délices Park,"{'0': [{'_1': 12.0, '_2': 19.0}], '1': [{'_1': 12.0, '_2': 15.0}], '2': [{'_1': 12.0, '_2': 17.0}], '3': [{'_1': 12.0, '_2': 17.0}], '4': [{'_1': 12.0, '_2': 17.0}, {'_1': 18.0, '_2': 22.0}], '5': [{'_1': 12.0, '_2': 22.0}], '6': [{'_1': 12.0, '_2': 22.0}]}",5.0,60
151,ChIJLTT1rRNu5kcRrpY6HfY_ecM,48.87305519999999,2.3540112,"Manpower Grand Paris Travaux Publics - Gros Œuvre, Paris, France","{'0': [{'_1': 12.0, '_2': 23.0}], '1': [], '2': [], '3': [{'_1': 12.0, '_2': 23.0}], '4': [{'_1': 12.0, '_2': 23.0}], '5': [{'_1': 12.0, '_2': 23.0}], '6': [{'_1': 12.0, '_2': 23.0}]}",0.0,60
152,ChIJrcErs9fd4EcRpf0Wi_fmNR4,49.4431737,1.0946925,Kusmi Tea - Rouen,"{'0': [], '1': [{'_1': 10.0, '_2': 19.0}], '2': [{'_1': 10.0, '_2': 19.0}], '3': [{'_1': 10.0, '_2': 19.0}], '4': [{'_1': 10.0, '_2': 19.0}], '5': [{'_1': 10.0, '_2': 19.0}], '6': [{'_1': 10.0, '_2': 19.0}]}",4.7,60
153,ChIJQTzaR_hC5kcR4bt0p847lmQ,49.0494093,2.3357601,Delamare Eliane Núe Hoellard,"{'0': [], '1': [], '2': [], '3': [], '4': [], '5': [], '6': []}",0.0,60
154,ChIJR0vQYn5MHRURweWp22Z-atU,32.0772225,34.76927829999999,Hot Dog בגרשוב,"{'0': [{'_1': 12.0, '_2': 24.0}, {'_1': 0.0, '_2': 2.0}], '1': [{'_1': 12.0, '_2': 24.0}], '2': [{'_1': 0.0, '_2': 2.0}, {'_1': 12.0, '_2': 24.0}], '3': [{'_1': 0.0, '_2': 2.0}, {'_1': 12.0, '_2': 24.0}], '4': [{'_1': 0.0, '_2': 2.0}, {'_1': 12.0, '_2': 24.0}], '5': [{'_1': 0.0, '_2': 2.0}], '6': [{'_1': 12.0, '_2': 24.0}]}",0.0,120
155,ChIJU21eyyNu5kcRnZZIxUCKFRw,48.864141,2.3334139,VIPROOM - La Gioia,"{'0': [{'_1': 0.0, '_2': 2.0}], '1': [], '2': [{'_1': 20.5, '_2': 24.0}], '3': [{'_1': 0.0, '_2': 2.0}, {'_1': 20.5, '_2': 24.0}], '4': [{'_1': 0.0, '_2': 2.0}, {'_1': 20.5, '_2': 24.0}], '5': [{'_1': 0.0, '_2': 2.0}, {'_1': 20.5, '_2': 24.0}], '6': [{'_1': 0.0, '_2': 2.0}, {'_1': 20.5, '_2': 24.0}]}",4.0,60
156,ChIJg_AnfiVu5kcRh1WlwP5OEoQ,48.8641174,2.3338335,Cafés Verlet,"{'0': [], '1': [{'_1': 9.5, '_2': 18.5}], '2': [{'_1': 9.5, '_2': 18.5}], '3': [{'_1': 9.5, '_2': 18.5}], '4': [{'_1': 9.5, '_2': 18.5}], '5': [{'_1': 9.5, '_2': 18.5}], '6': [{'_1': 9.5, '_2': 18.5}]}",4.1,60
157,ChIJy0BIeg9u5kcR5AwjK59SBj0,48.8664886,2.3598099,750 Gr Le Resto,"{'0': [], '1': [], '2': [], '3': [], '4': [], '5': [], '6': []}",4.4,60
158,ChIJOW9uhBpu5kcRgSIGtaSCt_k,48.8657378,2.3541439,Etablissements F. Paris,"{'0': [], '1': [], '2': [], '3': [], '4': [], '5': [], '6': []}",0.0,60
159,ChIJOaOnTBFu5kcRBjLLRc0hjyI,48.8702541,2.3512938,Karail Mazagran,"{'0': [], '1': [], '2': [], '3': [], '4': [], '5': [], '6': []}",5.0,60
160,ChIJ_Zoff4pv5kcRA2l1cmjo8Xk,48.8802659,2.2783987,Océan Café,"{'0': [], '1': [], '2': [], '3': [], '4': [], '5': [], '6': []}",0.0,60
161,ChIJQYgohRNu5kcReVMa6MNEpbg,48.8732108,2.3521487,Cinco Bodega,"{'0': [{'_1': 0.0, '_2': 1.5}], '1': [{'_1': 18.0, '_2': 24.0}], '2': [{'_1': 0.0, '_2': 1.5}, {'_1': 18.0, '_2': 24.0}], '3': [{'_1': 0.0, '_2': 1.5}, {'_1': 18.0, '_2': 24.0}], '4': [{'_1': 0.0, '_2': 1.5}, {'_1': 18.0, '_2': 24.0}], '5': [{'_1': 0.0, '_2': 1.5}, {'_1': 18.0, '_2': 24.0}], '6': [{'_1': 0.0, '_2': 1.5}, {'_1': 18.0, '_2': 24.0}]}",4.2,60
162,ChIJuWLV-AVu5kcRwZjvx0PKeHk,48.8656517,2.3616018,Máncora Cebicheria,"{'0': [{'_1': 12.0, '_2': 15.0}, {'_1': 19.0, '_2': 23.0}], '1': [], '2': [{'_1': 12.0, '_2': 14.5}, {'_1': 19.0, '_2': 22.5}], '3': [{'_1': 12.0, '_2': 14.5}, {'_1': 19.0, '_2': 22.5}], '4': [{'_1': 12.0, '_2': 14.5}, {'_1': 19.0, '_2': 22.5}], '5': [{'_1': 12.0, '_2': 14.5}, {'_1': 19.0, '_2': 22.5}], '6': [{'_1': 12.0, '_2': 15.0}, {'_1': 19.0, '_2': 23.0}]}",4.6,60
163,ChIJeR-ZJQ5u5kcRUr-tuIJrUVk,48.86917,2.357268,Zerda Café Paris 10 - Couscous Tajines,"{'0': [], '1': [{'_1': 19.0, '_2': 23.0}], '2': [{'_1': 12.0, '_2': 14.5}, {'_1': 19.0, '_2': 23.0}], '3': [{'_1': 12.0, '_2': 14.5}, {'_1': 19.0, '_2': 23.0}], '4': [{'_1': 12.0, '_2': 14.5}, {'_1': 19.0, '_2': 23.0}], '5': [{'_1': 12.0, '_2': 14.5}, {'_1': 19.0, '_2': 23.0}], '6': [{'_1': 19.0, '_2': 23.0}]}",4.2,60
164,ChIJmRGY02Fl5kcRJrY587yKiR4,48.88032800000001,2.278583,Epices Riz - Tapas & Pasta,"{'0': [], '1': [{'_1': 9.0, '_2': 22.5}], '2': [{'_1': 9.0, '_2': 22.5}], '3': [{'_1': 9.0, '_2': 22.5}], '4': [{'_1': 9.0, '_2': 22.5}], '5': [{'_1': 9.0, '_2': 22.5}], '6': [{'_1': 9.0, '_2': 22.5}]}",3.5,60
165,ChIJxbebsxNu5kcRLvxkrrrpRQA,48.872775,2.354222,Kebox Kebap,"{'0': [{'_1': 11.0, '_2': 24.0}, {'_1': 0.0, '_2': 2.0}], '1': [{'_1': 11.0, '_2': 24.0}], '2': [{'_1': 11.0, '_2': 24.0}], '3': [{'_1': 0.0, '_2': 2.0}, {'_1': 11.0, '_2': 24.0}], '4': [{'_1': 0.0, '_2': 2.0}, {'_1': 11.0, '_2': 24.0}], '5': [{'_1': 0.0, '_2': 2.0}, {'_1': 11.0, '_2': 24.0}], '6': [{'_1': 0.0, '_2': 2.0}, {'_1': 11.0, '_2': 24.0}]}",4.2,60
166,ChIJC80sMw5u5kcR5VRdaCBbwXE,48.8685461,2.3576322,Restaurant Chinois Traditionnel,"{'0': [], '1': [], '2': [{'_1': 12.0, '_2': 23.0}], '3': [{'_1': 12.0, '_2': 23.0}], '4': [{'_1': 12.0, '_2': 23.0}], '5': [{'_1': 12.0, '_2': 23.0}], '6': [{'_1': 12.0, '_2': 23.0}]}",4.5,60
167,ChIJq4uLWCNy5kcRXkb61VLISMs,48.8309748,2.3746375,Le soixante douze,"{'0': [{'_1': 10.0, '_2': 24.0}, {'_1': 0.0, '_2': 2.0}], '1': [{'_1': 10.0, '_2': 24.0}], '2': [{'_1': 10.0, '_2': 24.0}], '3': [{'_1': 10.0, '_2': 24.0}], '4': [{'_1': 10.0, '_2': 24.0}], '5': [{'_1': 10.0, '_2': 24.0}], '6': [{'_1': 0.0, '_2': 2.0}, {'_1': 10.0, '_2': 24.0}]}",4.0,60
168,ChIJg6wFsjxy5kcR3CfwT8tT7MI,48.8313112,2.3763562,L'avenue,"{'0': [{'_1': 9.0, '_2': 24.0}, {'_1': 0.0, '_2': 2.0}], '1': [{'_1': 0.0, '_2': 2.0}, {'_1': 7.0, '_2': 24.0}], '2': [{'_1': 0.0, '_2': 2.0}, {'_1': 7.0, '_2': 24.0}], '3': [{'_1': 0.0, '_2': 2.0}, {'_1': 7.0, '_2': 24.0}], '4': [{'_1': 0.0, '_2': 2.0}, {'_1': 7.0, '_2': 24.0}], '5': [{'_1': 0.0, '_2': 2.0}, {'_1': 7.0, '_2': 24.0}], '6': [{'_1': 0.0, '_2': 2.0}, {'_1': 9.0, '_2': 24.0}]}",2.6,60
169,ChIJpbmZVtbd4EcRuRwRk4ts3KQ,49.4437471,1.095089,La Buissonnière,"{'0': [], '1': [], '2': [{'_1': 12.0, '_2': 14.0}], '3': [{'_1': 12.0, '_2': 14.0}], '4': [{'_1': 12.0, '_2': 14.0}, {'_1': 19.5, '_2': 22.0}], '5': [{'_1': 12.0, '_2': 14.0}, {'_1': 19.5, '_2': 22.0}], '6': [{'_1': 12.0, '_2': 14.0}, {'_1': 19.5, '_2': 22.0}]}",4.7,60
170,ChIJ-cUdMOZt5kcROFjqTKTTMlI,48.87245759999999,2.378872,Lin Soul,"{'0': [], '1': [], '2': [], '3': [], '4': [], '5': [], '6': []}",0.0,60
171,ChIJWyVepXRy5kcR-LhTCo34KkA,48.85081779999999,2.389704,Satouri Bassem,"{'0': [], '1': [], '2': [], '3': [], '4': [], '5': [], '6': []}",0.0,60
172,ChIJMYa_tV9u5kcRa2WwnFIwK3s,48.894253,2.345909,Doppio,"{'0': [{'_1': 11.5, '_2': 15.0}], '1': [{'_1': 11.5, '_2': 14.5}, {'_1': 19.0, '_2': 23.0}], '2': [{'_1': 11.5, '_2': 14.5}, {'_1': 19.0, '_2': 23.0}], '3': [{'_1': 11.5, '_2': 14.5}, {'_1': 19.0, '_2': 23.0}], '4': [{'_1': 11.5, '_2': 14.5}, {'_1': 19.0, '_2': 23.0}], '5': [{'_1': 11.5, '_2': 14.5}, {'_1': 19.0, '_2': 23.0}], '6': [{'_1': 11.5, '_2': 14.5}, {'_1': 19.0, '_2': 23.0}]}",4.8,60
173,ChIJo6rO7pBx5kcRXyDNaNBpPdU,48.8275926,2.3496643,Lagarde Daniel,"{'0': [], '1': [], '2': [], '3': [], '4': [], '5': [], '6': []}",0.0,60
174,ChIJL2Gupwtu5kcRccu6L87htAE,48.8733988,2.3646421,DonAntónia Pastelaria,"{'0': [{'_1': 9.5, '_2': 19.0}], '1': [], '2': [{'_1': 9.5, '_2': 18.5}], '3': [{'_1': 9.5, '_2': 18.5}], '4': [{'_1': 9.5, '_2': 18.5}], '5': [{'_1': 9.5, '_2': 18.5}], '6': [{'_1': 9.5, '_2': 19.0}]}",4.8,60
175,ChIJEwbXRwpu5kcRVp0biS8GP78,48.87221539999999,2.3662958,PHILOU,"{'0': [], '1': [], '2': [{'_1': 12.0, '_2': 23.0}], '3': [{'_1': 12.0, '_2': 23.0}], '4': [{'_1': 12.0, '_2': 23.0}], '5': [{'_1': 12.0, '_2': 23.0}], '6': [{'_1': 12.0, '_2': 23.0}]}",4.5,60
176,ChIJGaJwxQ9u5kcRlxwpVM7z-4A,48.8678777,2.3575197,Pizza Da Michel,"{'0': [], '1': [], '2': [], '3': [], '4': [], '5': [], '6': []}",0.0,60
177,ChIJcTfN6JBx5kcRGgAMT2F8MRM,48.827812,2.3494367,Le Diamant,"{'0': [{'_1': 7.0, '_2': 24.0}, {'_1': 0.0, '_2': 2.0}], '1': [{'_1': 0.0, '_2': 2.0}, {'_1': 7.0, '_2': 24.0}], '2': [{'_1': 0.0, '_2': 2.0}, {'_1': 7.0, '_2': 24.0}], '3': [{'_1': 0.0, '_2': 2.0}, {'_1': 7.0, '_2': 24.0}], '4': [{'_1': 0.0, '_2': 2.0}, {'_1': 7.0, '_2': 24.0}], '5': [{'_1': 0.0, '_2': 2.0}, {'_1': 7.0, '_2': 24.0}], '6': [{'_1': 0.0, '_2': 2.0}, {'_1': 7.0, '_2': 24.0}]}",4.0,60
178,ChIJq6n5kRFu5kcRxowW0s_4C4k,48.8702176,2.3550211,Strasbourg,"{'0': [], '1': [], '2': [], '3': [], '4': [], '5': [], '6': []}",3.0,60
179,ChIJCagvUhFu5kcRl525UnAZYq8,48.8707467,2.3515893,Haweli,"{'0': [], '1': [], '2': [], '3': [], '4': [], '5': [], '6': []}",4.2,60
180,ChIJH0__gX5MHRUR7HveriSUp1E,32.077881,34.768648,Cerveceria - Spanish Beer & Tapas,"{'0': [{'_1': 17.0, '_2': 24.0}, {'_1': 0.0, '_2': 2.0}], '1': [{'_1': 0.0, '_2': 1.0}, {'_1': 17.0, '_2': 24.0}], '2': [{'_1': 0.0, '_2': 1.0}, {'_1': 17.0, '_2': 24.0}], '3': [{'_1': 0.0, '_2': 1.0}, {'_1': 17.0, '_2': 24.0}], '4': [{'_1': 0.0, '_2': 1.0}, {'_1': 17.0, '_2': 24.0}], '5': [{'_1': 0.0, '_2': 1.0}, {'_1': 12.0, '_2': 24.0}], '6': [{'_1': 0.0, '_2': 1.0}, {'_1': 11.0, '_2': 24.0}]}",4.1,120
181,ChIJ__8Twhpu5kcRLkSjIDQ7dWo,48.864448,2.3550433,Your Kitchen,"{'0': [{'_1': 11.5, '_2': 23.5}], '1': [], '2': [{'_1': 11.5, '_2': 23.5}], '3': [{'_1': 11.5, '_2': 23.5}], '4': [{'_1': 11.5, '_2': 23.5}], '5': [{'_1': 11.5, '_2': 23.5}], '6': [{'_1': 11.5, '_2': 23.5}]}",4.6,60
182,ChIJhWJdGQ9u5kcRGwZxAYGMRfU,48.8680957,2.3604073,Chouchou Bar,"{'0': [], '1': [], '2': [], '3': [], '4': [], '5': [], '6': []}",0.0,60
183,ChIJY0g8FU1u5kcRt07KK3BHrF8,48.8855503,2.3257461,Lucien La Chance,"{'0': [{'_1': 12.0, '_2': 15.0}, {'_1': 18.5, '_2': 24.0}, {'_1': 0.0, '_2': 1.5}], '1': [{'_1': 0.0, '_2': 0.5}, {'_1': 18.5, '_2': 24.0}], '2': [{'_1': 0.0, '_2': 0.5}, {'_1': 18.5, '_2': 24.0}], '3': [{'_1': 0.0, '_2': 0.5}, {'_1': 18.5, '_2': 24.0}], '4': [{'_1': 0.0, '_2': 0.5}, {'_1': 18.5, '_2': 24.0}], '5': [{'_1': 0.0, '_2': 0.5}, {'_1': 18.5, '_2': 24.0}], '6': [{'_1': 0.0, '_2': 1.5}, {'_1': 12.0, '_2': 15.0}, {'_1': 18.5, '_2': 24.0}]}",4.0,60
184,ChIJi7ud3MNt5kcR7nnPdIkLOi4,48.87878159999999,2.3851194,La Lanterne,"{'0': [], '1': [], '2': [], '3': [], '4': [], '5': [], '6': []}",2.0,60
185,ChIJxW10QHZu5kcR_0OSzJYAnlA,48.882233,2.367489,Le 233,"{'0': [], '1': [], '2': [], '3': [], '4': [], '5': [], '6': []}",0.0,60
186,ChIJv25Mjw5u5kcRFgQ84pgMyuo,48.870329,2.3600504,Le Navy,"{'0': [], '1': [{'_1': 7.5, '_2': 21.0}], '2': [{'_1': 7.5, '_2': 21.0}], '3': [{'_1': 7.5, '_2': 21.0}], '4': [{'_1': 7.5, '_2': 21.0}], '5': [{'_1': 7.5, '_2': 21.0}], '6': [{'_1': 7.5, '_2': 21.0}]}",5.0,60
187,ChIJ74xKSAVu5kcRnHU42GDV9HI,48.8648366,2.3570274,Bagel Tom,"{'0': [], '1': [{'_1': 12.0, '_2': 17.5}], '2': [{'_1': 12.0, '_2': 22.0}], '3': [{'_1': 12.0, '_2': 22.0}], '4': [{'_1': 12.0, '_2': 22.0}], '5': [{'_1': 12.0, '_2': 22.0}], '6': [{'_1': 12.0, '_2': 22.0}]}",4.2,60
188,ChIJNQCWs19u5kcR55xu8BroyME,48.8941494,2.345682,Le Bon Plan Restauration,"{'0': [], '1': [], '2': [], '3': [], '4': [], '5': [], '6': []}",0.0,60
189,ChIJuYJGuRZu5kcRH2oCADyJiKU,48.870543,2.3503427,Pizza Hut Bonne Nouvelle,"{'0': [{'_1': 11.75, '_2': 22.5}], '1': [{'_1': 11.75, '_2': 22.5}], '2': [{'_1': 11.75, '_2': 23.0}], '3': [{'_1': 11.75, '_2': 23.0}], '4': [{'_1': 11.75, '_2': 23.0}], '5': [{'_1': 11.75, '_2': 23.0}], '6': [{'_1': 11.75, '_2': 23.0}]}",3.3,60
190,ChIJu3zo7AVu5kcRMcUO_cMZLAI,48.8651356,2.360755799999999,Marché Noir,"{'0': [{'_1': 8.0, '_2': 22.0}], '1': [{'_1': 8.0, '_2': 22.0}], '2': [{'_1': 8.0, '_2': 22.0}], '3': [{'_1': 8.0, '_2': 22.0}], '4': [{'_1': 8.0, '_2': 22.0}], '5': [{'_1': 8.0, '_2': 22.0}], '6': [{'_1': 8.0, '_2': 22.0}]}",4.9,60
191,ChIJFdZgOg5u5kcR3mYHPu1BCHU,48.8692859,2.357559799999999,All Star,"{'0': [{'_1': 11.0, '_2': 24.0}, {'_1': 0.0, '_2': 2.0}], '1': [{'_1': 0.0, '_2': 2.0}, {'_1': 11.0, '_2': 24.0}], '2': [{'_1': 0.0, '_2': 2.0}, {'_1': 11.0, '_2': 24.0}], '3': [{'_1': 0.0, '_2': 2.0}, {'_1': 11.0, '_2': 24.0}], '4': [{'_1': 0.0, '_2': 2.0}, {'_1': 11.0, '_2': 24.0}], '5': [{'_1': 0.0, '_2': 2.0}, {'_1': 11.0, '_2': 24.0}], '6': [{'_1': 0.0, '_2': 2.0}, {'_1': 11.0, '_2': 24.0}]}",4.5,60
192,ChIJzU89SQVu5kcRulISbJu3oz4,48.8650223,2.3569121,Chez XU (spécialités du WenZhou),"{'0': [{'_1': 7.5, '_2': 22.0}], '1': [{'_1': 7.5, '_2': 22.0}], '2': [{'_1': 7.5, '_2': 17.5}], '3': [{'_1': 7.5, '_2': 22.0}], '4': [{'_1': 7.5, '_2': 22.0}], '5': [{'_1': 7.5, '_2': 22.0}], '6': [{'_1': 7.5, '_2': 22.0}]}",4.4,60
193,ChIJG3KRkRBu5kcRMVfJdY_kn7E,48.86687609999999,2.3534046,Le Bistrot de la Gaité - Restaurant Paris,"{'0': [{'_1': 10.0, '_2': 22.5}], '1': [{'_1': 8.0, '_2': 24.0}], '2': [{'_1': 8.0, '_2': 24.0}], '3': [{'_1': 8.0, '_2': 24.0}], '4': [{'_1': 8.0, '_2': 24.0}], '5': [{'_1': 8.0, '_2': 24.0}], '6': [{'_1': 10.0, '_2': 24.0}]}",3.4,60
194,ChIJrYIU7xpu5kcRpBfmWzYU6wc,48.86440809999999,2.3546097,KOKO cantine japonaise,"{'0': [], '1': [{'_1': 12.0, '_2': 15.0}, {'_1': 19.0, '_2': 23.0}], '2': [{'_1': 12.0, '_2': 15.0}, {'_1': 19.0, '_2': 23.0}], '3': [{'_1': 12.0, '_2': 15.0}, {'_1': 19.0, '_2': 23.0}], '4': [{'_1': 12.0, '_2': 15.0}, {'_1': 19.0, '_2': 23.0}], '5': [{'_1': 12.0, '_2': 15.0}, {'_1': 19.0, '_2': 23.0}], '6': [{'_1': 12.0, '_2': 15.0}, {'_1': 19.0, '_2': 23.0}]}",4.1,60
195,ChIJ0WmQzgBy5kcRQWOrPs988wQ,48.85399529999999,2.3719523,Tortilla 10,"{'0': [{'_1': 17.5, '_2': 24.0}, {'_1': 0.0, '_2': 2.0}], '1': [{'_1': 0.0, '_2': 2.0}, {'_1': 17.5, '_2': 24.0}], '2': [{'_1': 0.0, '_2': 2.0}, {'_1': 17.5, '_2': 24.0}], '3': [{'_1': 0.0, '_2': 2.0}, {'_1': 17.5, '_2': 24.0}], '4': [{'_1': 0.0, '_2': 2.0}, {'_1': 17.5, '_2': 24.0}], '5': [{'_1': 0.0, '_2': 2.0}, {'_1': 17.5, '_2': 24.0}], '6': [{'_1': 0.0, '_2': 2.0}, {'_1': 17.5, '_2': 24.0}]}",3.9,60
196,ChIJR3X3jQ5u5kcRmhN1QjKpoZI,48.8699912,2.3603205,Corbière Berenger,"{'0': [], '1': [], '2': [], '3': [], '4': [], '5': [], '6': []}",0.0,60
197,ChIJ1b1TlAtu5kcRrs7eP2Oo7B8,48.87237719999999,2.363882599999999,FRIC-FRAC,"{'0': [{'_1': 12.0, '_2': 22.0}], '1': [], '2': [{'_1': 12.0, '_2': 15.0}, {'_1': 19.5, '_2': 22.5}], '3': [{'_1': 12.0, '_2': 15.0}, {'_1': 19.5, '_2': 22.5}], '4': [{'_1': 12.0, '_2': 15.0}, {'_1': 19.5, '_2': 22.5}], '5': [{'_1': 12.0, '_2': 15.0}, {'_1': 19.5, '_2': 22.5}], '6': [{'_1': 12.0, '_2': 22.5}]}",4.6,60
198,ChIJCX30Jw5u5kcR8bFwtshdELc,48.8693758,2.3569352,Meisia 2.0 - Boardgame Café,"{'0': [{'_1': 12.0, '_2': 22.0}], '1': [{'_1': 17.0, '_2': 24.0}], '2': [{'_1': 17.0, '_2': 24.0}], '3': [{'_1': 17.0, '_2': 24.0}], '4': [{'_1': 12.0, '_2': 24.0}], '5': [{'_1': 12.0, '_2': 24.0}], '6': [{'_1': 12.0, '_2': 24.0}]}",4.5,60
199,ChIJC80sMw5u5kcREpYuIRlKPgI,48.8685461,2.3576322,Petit villa,"{'0': [{'_1': 19.0, '_2': 23.0}], '1': [{'_1': 19.0, '_2': 23.0}], '2': [{'_1': 12.0, '_2': 15.0}, {'_1': 19.0, '_2': 23.0}], '3': [{'_1': 12.0, '_2': 15.0}, {'_1': 19.0, '_2': 23.0}], '4': [{'_1': 12.0, '_2': 15.0}, {'_1': 19.0, '_2': 23.0}], '5': [{'_1': 12.0, '_2': 15.0}, {'_1': 19.0, '_2': 23.0}], '6': [{'_1': 12.0, '_2': 15.0}, {'_1': 19.0, '_2': 23.0}]}",0.0,60
200,ChIJy2tKyhpu5kcRj29V2fhBJgc,48.8646558,2.356141699999999,萬里香包子,"{'0': [], '1': [], '2': [], '3': [], '4': [], '5': [], '6': []}",0.0,60
201,ChIJ5aXm60xu5kcRSsQrTXqFMlQ,48.8834703,2.3259269,Brasserie Le Moncey,"{'0': [{'_1': 8.0, '_2': 24.0}, {'_1': 0.0, '_2': 1.5}], '1': [{'_1': 0.0, '_2': 1.5}, {'_1': 8.0, '_2': 24.0}], '2': [{'_1': 0.0, '_2': 1.5}, {'_1': 8.0, '_2': 24.0}], '3': [{'_1': 0.0, '_2': 1.5}, {'_1': 8.0, '_2': 24.0}], '4': [{'_1': 0.0, '_2': 1.5}, {'_1': 8.0, '_2': 24.0}], '5': [{'_1': 0.0, '_2': 1.5}, {'_1': 8.0, '_2': 24.0}], '6': [{'_1': 0.0, '_2': 1.5}, {'_1': 8.0, '_2': 24.0}]}",3.5,60
202,ChIJVxgWJg5u5kcRlvPFwxfFEx8,48.86916919999999,2.3572001,Bar Du Theatre,"{'0': [{'_1': 0.0, '_2': 2.0}], '1': [], '2': [], '3': [{'_1': 15.0, '_2': 24.0}], '4': [{'_1': 0.0, '_2': 2.0}, {'_1': 15.0, '_2': 24.0}], '5': [{'_1': 0.0, '_2': 2.0}, {'_1': 15.0, '_2': 24.0}], '6': [{'_1': 0.0, '_2': 2.0}, {'_1': 15.0, '_2': 24.0}]}",5.0,60
203,ChIJI9asphdu5kcR15A8u5M2YiE,48.867831,2.347951,Frenchie bar à vin,"{'0': [{'_1': 19.0, '_2': 23.0}], '1': [{'_1': 19.0, '_2': 23.0}], '2': [{'_1': 19.0, '_2': 23.0}], '3': [{'_1': 19.0, '_2': 23.0}], '4': [{'_1': 19.0, '_2': 23.0}], '5': [{'_1': 19.0, '_2': 23.0}], '6': [{'_1': 19.0, '_2': 23.0}]}",4.9,60
204,ChIJde3lRdbd4EcRMzxSNzBSmUI,49.4431034,1.0953664,Boulangerie PAUL,"{'0': [], '1': [{'_1': 7.0, '_2': 20.5}], '2': [{'_1': 7.0, '_2': 20.5}], '3': [{'_1': 7.0, '_2': 20.5}], '4': [{'_1': 7.0, '_2': 20.5}], '5': [{'_1': 7.0, '_2': 20.5}], '6': [{'_1': 7.0, '_2': 20.5}]}",2.8,60
205,ChIJlcwsKQpu5kcRFhfUUxWAtMc,48.8713302,2.365864,The Cork And Cavan,"{'0': [{'_1': 12.0, '_2': 24.0}, {'_1': 0.0, '_2': 2.0}], '1': [{'_1': 0.0, '_2': 2.0}, {'_1': 15.0, '_2': 24.0}], '2': [{'_1': 0.0, '_2': 2.0}, {'_1': 15.0, '_2': 24.0}], '3': [{'_1': 0.0, '_2': 2.0}, {'_1': 15.0, '_2': 24.0}], '4': [{'_1': 0.0, '_2': 2.0}, {'_1': 15.0, '_2': 24.0}], '5': [{'_1': 0.0, '_2': 2.0}, {'_1': 15.0, '_2': 24.0}], '6': [{'_1': 0.0, '_2': 2.0}, {'_1': 13.0, '_2': 24.0}]}",4.2,60
206,ChIJwbIM-RBu5kcRtU8Tm6oGXoU,48.8683368,2.3541562,Click,"{'0': [], '1': [], '2': [], '3': [], '4': [], '5': [], '6': []}",0.0,60
207,ChIJEQW0Aw9u5kcR3kmvlbR0IyA,48.868147,2.3598101,Restaurant le Porte Bonheur,"{'0': [], '1': [], '2': [], '3': [], '4': [], '5': [], '6': []}",5.0,60
208,ChIJ8QIXbBpu5kcRyNHIcMnIpRs,48.86528439999999,2.3526087,Cgms Et Associés,"{'0': [], '1': [], '2': [], '3': [], '4': [], '5': [], '6': []}",0.0,60
209,ChIJZSvrOOZt5kcRkTGTQdp_KMw,48.872323,2.3782157,Au Vieux Saumur,"{'0': [], '1': [], '2': [], '3': [], '4': [], '5': [], '6': []}",5.0,60
210,ChIJ9_hBZA5u5kcRfEdO63WfdRE,48.8701845,2.3592306,Fifi la praline,"{'0': [], '1': [], '2': [], '3': [], '4': [], '5': [], '6': []}",5.0,60
211,ChIJXQe42hRu5kcRFuZ-PC_YrSE,48.87550350000001,2.349554,Gardenia,"{'0': [], '1': [{'_1': 11.75, '_2': 15.5}, {'_1': 18.5, '_2': 23.0}], '2': [{'_1': 11.75, '_2': 15.5}, {'_1': 18.5, '_2': 23.0}], '3': [{'_1': 11.75, '_2': 15.5}, {'_1': 18.5, '_2': 23.0}], '4': [{'_1': 11.75, '_2': 15.5}, {'_1': 18.5, '_2': 23.0}], '5': [{'_1': 11.75, '_2': 15.5}, {'_1': 18.5, '_2': 23.0}], '6': [{'_1': 18.5, '_2': 22.5}]}",4.4,60
212,ChIJn8q_UBFu5kcRxW8yaomhpDQ,48.8707177,2.3519491,Restaurant Saveurs des iles,"{'0': [], '1': [], '2': [], '3': [], '4': [], '5': [], '6': []}",4.0,60
213,ChIJUUma8Dlu5kcRbqF6Btd29Lw,48.8719369,2.3352489,新香港,"{'0': [], '1': [], '2': [], '3': [], '4': [], '5': [], '6': []}",3.7,60
214,ChIJ02Lg3z1u5kcRIyN9MB7QdlY,48.8711436,2.344143799999999,Corcoran's Irish Pub Grands Boulevards,"{'0': [{'_1': 11.0, '_2': 24.0}, {'_1': 0.0, '_2': 2.0}], '1': [{'_1': 0.0, '_2': 2.0}, {'_1': 9.0, '_2': 24.0}], '2': [{'_1': 0.0, '_2': 2.0}, {'_1': 9.0, '_2': 24.0}], '3': [{'_1': 0.0, '_2': 2.0}, {'_1': 9.0, '_2': 24.0}], '4': [{'_1': 0.0, '_2': 3.0}, {'_1': 9.0, '_2': 24.0}], '5': [{'_1': 0.0, '_2': 5.0}, {'_1': 9.0, '_2': 24.0}], '6': [{'_1': 0.0, '_2': 5.0}, {'_1': 11.0, '_2': 24.0}]}",3.6,60
215,ChIJCfyGSxBu5kcRQLE5LuNBfBw,48.8684217,2.3550217,Cecilia Sarl,"{'0': [], '1': [], '2': [], '3': [], '4': [], '5': [], '6': []}",0.0,60
216,ChIJh1ckgH5MHRURu-zGw_sy1aw,32.0776659,34.768587,Burger Bar Cosher,"{'0': [], '1': [], '2': [], '3': [], '4': [], '5': [], '6': []}",0.0,120
217,ChIJr7D4gX5MHRURBq7_PjFMhz8,32.0778434,34.768655,Cafe Esther,"{'0': [], '1': [], '2': [], '3': [], '4': [], '5': [], '6': []}",4.0,120
218,ChIJlRU_yhNu5kcRhj4-_M_tv2k,48.8723718,2.353868899999999,Marie Lounic'H,"{'0': [], '1': [], '2': [], '3': [], '4': [], '5': [], '6': []}",0.0,60
219,ChIJAe0-WHNy5kcRSnKhw1hAxDE,48.8503621,2.3897306,Pizza Venise,"{'0': [{'_1': 11.0, '_2': 15.0}, {'_1': 18.0, '_2': 23.0}], '1': [{'_1': 11.0, '_2': 15.0}, {'_1': 18.0, '_2': 23.0}], '2': [{'_1': 11.0, '_2': 15.0}, {'_1': 18.0, '_2': 23.0}], '3': [{'_1': 11.0, '_2': 15.0}, {'_1': 18.0, '_2': 23.0}], '4': [{'_1': 11.0, '_2': 15.0}, {'_1': 18.0, '_2': 23.0}], '5': [{'_1': 11.0, '_2': 15.0}, {'_1': 18.0, '_2': 23.0}], '6': [{'_1': 11.0, '_2': 15.0}, {'_1': 18.0, '_2': 23.0}]}",4.6,60
220,ChIJC0S_hxlu5kcRMx4l35zcS1Y,48.8636658,2.3488466,Neric,"{'0': [], '1': [], '2': [], '3': [], '4': [], '5': [], '6': []}",0.0,60
221,ChIJh9CWKNlx5kcRgsy7Hu0VB-g,48.8534263,2.338015200000001,Pizzeria Pepone,"{'0': [{'_1': 11.0, '_2': 15.0}, {'_1': 18.0, '_2': 24.0}], '1': [{'_1': 11.0, '_2': 15.0}, {'_1': 18.0, '_2': 24.0}], '2': [{'_1': 11.0, '_2': 15.0}, {'_1': 18.0, '_2': 24.0}], '3': [{'_1': 11.0, '_2': 15.0}, {'_1': 18.0, '_2': 24.0}], '4': [{'_1': 11.0, '_2': 15.0}, {'_1': 18.0, '_2': 24.0}], '5': [{'_1': 11.0, '_2': 15.0}, {'_1': 18.0, '_2': 24.0}], '6': [{'_1': 11.0, '_2': 15.0}, {'_1': 18.0, '_2': 24.0}]}",3.5,60
222,ChIJ-yhUhBlu5kcRn7oY-yhJGpw,48.8640017,2.3503816,Matsusushi,"{'0': [], '1': [], '2': [], '3': [], '4': [], '5': [], '6': []}",3.8,60
223,ChIJ6SiNWgVu5kcRUAUbNO40X_I,48.865533,2.357262,Cantine volta,"{'0': [], '1': [{'_1': 12.0, '_2': 14.5}], '2': [{'_1': 12.0, '_2': 14.5}], '3': [{'_1': 12.0, '_2': 14.5}], '4': [{'_1': 12.0, '_2': 14.5}], '5': [{'_1': 12.0, '_2': 14.5}], '6': []}",5.0,60
224,ChIJLaaekRFu5kcRMe87CR7uVAM,48.8701782,2.3542368,Pin Arthur,"{'0': [], '1': [], '2': [], '3': [], '4': [], '5': [], '6': []}",0.0,60
225,ChIJTwM1CxFu5kcRIhdQlxj-Vco,48.86984820000001,2.3538868,Luxor,"{'0': [], '1': [], '2': [], '3': [], '4': [], '5': [], '6': []}",0.0,60
226,ChIJLbfNKOZt5kcR-YZ7L5fpFLw,48.8725525,2.3790629,Wenzhou Restaurant,"{'0': [{'_1': 10.0, '_2': 22.0}], '1': [{'_1': 10.0, '_2': 22.0}], '2': [{'_1': 10.0, '_2': 22.0}], '3': [{'_1': 10.0, '_2': 22.0}], '4': [], '5': [{'_1': 10.0, '_2': 22.0}], '6': [{'_1': 10.0, '_2': 22.0}]}",4.0,60
227,ChIJTfmcNA5u5kcRfYHXVftk1eM,48.8688029,2.3579407,L'attirail Cafe,"{'0': [{'_1': 16.0, '_2': 24.0}, {'_1': 0.0, '_2': 2.0}], '1': [{'_1': 16.0, '_2': 24.0}], '2': [{'_1': 0.0, '_2': 2.0}, {'_1': 16.0, '_2': 24.0}], '3': [{'_1': 0.0, '_2': 2.0}, {'_1': 16.0, '_2': 24.0}], '4': [{'_1': 0.0, '_2': 2.0}, {'_1': 16.0, '_2': 24.0}], '5': [{'_1': 0.0, '_2': 2.0}, {'_1': 16.0, '_2': 24.0}], '6': [{'_1': 0.0, '_2': 2.0}, {'_1': 16.0, '_2': 24.0}]}",3.9,60
228,ChIJVduhlhdu5kcRI9vF10vMi10,48.86771599999999,2.3472756,Le Paristanbul,"{'0': [], '1': [], '2': [], '3': [], '4': [], '5': [], '6': []}",4.0,60
229,ChIJWyVepXRy5kcRUzpLZ8sW-vk,48.85081779999999,2.389704,Le Manuscrit,"{'0': [], '1': [], '2': [], '3': [], '4': [], '5': [], '6': []}",0.0,60
230,ChIJOxeopxlu5kcRS0e0ez5f1lc,48.86364649999999,2.3488964,Café Étienne,"{'0': [{'_1': 8.0, '_2': 24.0}, {'_1': 0.0, '_2': 2.0}], '1': [{'_1': 0.0, '_2': 2.0}, {'_1': 6.0, '_2': 24.0}], '2': [{'_1': 0.0, '_2': 2.0}, {'_1': 6.0, '_2': 24.0}], '3': [{'_1': 0.0, '_2': 2.0}, {'_1': 6.0, '_2': 24.0}], '4': [{'_1': 0.0, '_2': 2.0}, {'_1': 6.0, '_2': 24.0}], '5': [{'_1': 0.0, '_2': 2.0}, {'_1': 6.0, '_2': 24.0}], '6': [{'_1': 0.0, '_2': 2.0}, {'_1': 7.0, '_2': 24.0}]}",3.0,60
231,ChIJV8lg9Zly5kcRtFcuF0sOBII,48.8457064,2.4280273,Pat à Tarte,"{'0': [], '1': [], '2': [], '3': [], '4': [], '5': [], '6': []}",5.0,60
232,ChIJ0Y5OaFtt5kcRQVbf-0mfAmQ,48.8629559,2.4414916,Combas Jules,"{'0': [], '1': [], '2': [], '3': [], '4': [], '5': [], '6': []}",0.0,60
233,ChIJg-LMvxdu5kcR9r_8nQPVWdk,48.8674883,2.3472395,Empire Bar,"{'0': [], '1': [{'_1': 6.5, '_2': 20.0}], '2': [{'_1': 6.5, '_2': 20.0}], '3': [{'_1': 6.5, '_2': 20.0}], '4': [{'_1': 6.5, '_2': 20.0}], '5': [{'_1': 6.5, '_2': 20.0}], '6': [{'_1': 7.5, '_2': 20.0}]}",2.7,60
234,ChIJbabjEBlu5kcRf4quKVb1us8,48.8629639,2.348785700000001,Hoki Sushi,"{'0': [], '1': [], '2': [], '3': [], '4': [], '5': [], '6': []}",3.8,60
235,ChIJ3QHyugtu5kcRHTtoVYG07To,48.87265530000001,2.3647753,Canaletto Caffè,"{'0': [{'_1': 12.0, '_2': 16.0}, {'_1': 19.0, '_2': 23.0}], '1': [{'_1': 12.0, '_2': 15.0}, {'_1': 19.0, '_2': 23.0}], '2': [{'_1': 12.0, '_2': 15.0}, {'_1': 19.0, '_2': 23.0}], '3': [{'_1': 12.0, '_2': 15.0}, {'_1': 19.0, '_2': 23.0}], '4': [{'_1': 12.0, '_2': 15.0}, {'_1': 19.0, '_2': 23.0}], '5': [{'_1': 12.0, '_2': 15.0}, {'_1': 19.0, '_2': 23.0}], '6': [{'_1': 12.0, '_2': 15.0}, {'_1': 19.0, '_2': 23.0}]}",4.1,60
236,ChIJEwCci5ly5kcRR7xXNZeCmuo,48.84586299999999,2.428238,Extra Pizza,"{'0': [], '1': [], '2': [], '3': [], '4': [], '5': [], '6': []}",0.0,60
237,ChIJhUfAoBFu5kcRELNq_CDpgMg,48.869522,2.3540338,KFC Paris Strasbourg St Denis,"{'0': [{'_1': 10.0, '_2': 24.0}, {'_1': 0.0, '_2': 1.0}], '1': [{'_1': 10.0, '_2': 24.0}], '2': [{'_1': 10.0, '_2': 24.0}], '3': [{'_1': 10.0, '_2': 24.0}], '4': [{'_1': 10.0, '_2': 24.0}], '5': [{'_1': 10.0, '_2': 24.0}], '6': [{'_1': 0.0, '_2': 1.0}, {'_1': 10.0, '_2': 24.0}]}",2.8,60
238,ChIJgxn5zBNu5kcRjFTjWxFEtXE,48.8720381,2.3540864,Restaurant 52,"{'0': [{'_1': 8.0, '_2': 24.0}], '1': [{'_1': 8.0, '_2': 24.0}], '2': [{'_1': 8.0, '_2': 24.0}], '3': [{'_1': 8.0, '_2': 24.0}], '4': [{'_1': 8.0, '_2': 24.0}], '5': [{'_1': 8.0, '_2': 24.0}], '6': [{'_1': 8.0, '_2': 24.0}]}",4.4,60
239,ChIJY5aj1Rlu5kcRjAbdhqjInIg,48.86606399999999,2.348261,Experimental Cocktail Club,"{'0': [{'_1': 20.0, '_2': 24.0}, {'_1': 0.0, '_2': 4.0}], '1': [{'_1': 0.0, '_2': 2.0}, {'_1': 19.0, '_2': 24.0}], '2': [{'_1': 0.0, '_2': 2.0}, {'_1': 19.0, '_2': 24.0}], '3': [{'_1': 0.0, '_2': 2.0}, {'_1': 19.0, '_2': 24.0}], '4': [{'_1': 0.0, '_2': 2.0}, {'_1': 19.0, '_2': 24.0}], '5': [{'_1': 0.0, '_2': 2.0}, {'_1': 19.0, '_2': 24.0}], '6': [{'_1': 0.0, '_2': 4.0}, {'_1': 19.0, '_2': 24.0}]}",4.2,60
240,ChIJMZYYWiNy5kcRYf2vb9-ZYTA,48.8307173,2.37497,Le Bistrot D'Edgard,"{'0': [], '1': [{'_1': 8.0, '_2': 24.0}], '2': [{'_1': 8.0, '_2': 24.0}], '3': [{'_1': 8.0, '_2': 24.0}], '4': [{'_1': 8.0, '_2': 24.0}], '5': [{'_1': 8.0, '_2': 24.0}], '6': [{'_1': 8.0, '_2': 24.0}]}",3.8,60
241,ChIJ9aR5k3ly5kcR0FIDY_ePasg,48.8511345,2.4018248,Les pères populaires,"{'0': [{'_1': 10.0, '_2': 24.0}, {'_1': 0.0, '_2': 2.0}], '1': [{'_1': 0.0, '_2': 2.0}, {'_1': 8.5, '_2': 24.0}], '2': [{'_1': 0.0, '_2': 2.0}, {'_1': 8.5, '_2': 24.0}], '3': [{'_1': 0.0, '_2': 2.0}, {'_1': 8.5, '_2': 24.0}], '4': [{'_1': 0.0, '_2': 2.0}, {'_1': 8.5, '_2': 24.0}], '5': [{'_1': 0.0, '_2': 2.0}, {'_1': 8.5, '_2': 24.0}], '6': [{'_1': 0.0, '_2': 2.0}, {'_1': 10.0, '_2': 24.0}]}",4.3,60
242,ChIJ8egnq19u5kcRZC3tC6ruieg,48.8941161,2.3451534,Sou Khim,"{'0': [], '1': [{'_1': 11.75, '_2': 14.5}, {'_1': 19.0, '_2': 22.0}], '2': [{'_1': 11.75, '_2': 14.5}, {'_1': 19.0, '_2': 22.0}], '3': [{'_1': 11.75, '_2': 14.5}, {'_1': 19.0, '_2': 22.0}], '4': [{'_1': 11.75, '_2': 14.5}, {'_1': 19.0, '_2': 22.0}], '5': [{'_1': 11.75, '_2': 14.5}, {'_1': 19.0, '_2': 22.0}], '6': []}",4.8,60
243,ChIJT4j4Rwpu5kcRRA10kwBCF_c,48.872102,2.366132,Le Cambodge,"{'0': [{'_1': 12.0, '_2': 23.0}], '1': [{'_1': 12.0, '_2': 14.5}, {'_1': 19.0, '_2': 23.0}], '2': [{'_1': 12.0, '_2': 14.5}, {'_1': 19.0, '_2': 23.0}], '3': [{'_1': 12.0, '_2': 14.5}, {'_1': 19.0, '_2': 23.0}], '4': [{'_1': 12.0, '_2': 14.5}, {'_1': 19.0, '_2': 23.0}], '5': [{'_1': 12.0, '_2': 14.5}, {'_1': 19.0, '_2': 23.5}], '6': [{'_1': 12.0, '_2': 23.5}]}",4.4,60
244,ChIJjeOuSRBu5kcR9_JmAs9Wg6o,48.8681527,2.3551384,Cuisine Vietnamienne,"{'0': [], '1': [], '2': [], '3': [], '4': [], '5': [], '6': []}",0.0,60
245,ChIJIaYjORBu5kcR_oLZBc7cC6E,48.86771210000001,2.3554561,La Galerie Crus Paris,"{'0': [], '1': [], '2': [{'_1': 11.0, '_2': 20.0}], '3': [{'_1': 11.0, '_2': 20.0}], '4': [{'_1': 11.0, '_2': 20.0}], '5': [{'_1': 11.0, '_2': 20.0}], '6': [{'_1': 16.0, '_2': 20.0}]}",5.0,60
246,ChIJB_ML1mFl5kcRCZvRVsNnoMs,48.8805536,2.2788412,Orient Extrême Neuilly,"{'0': [], '1': [{'_1': 12.0, '_2': 14.5}, {'_1': 19.5, '_2': 23.0}], '2': [{'_1': 12.0, '_2': 14.5}, {'_1': 19.5, '_2': 23.0}], '3': [{'_1': 12.0, '_2': 14.5}, {'_1': 19.5, '_2': 23.0}], '4': [{'_1': 12.0, '_2': 14.5}, {'_1': 19.5, '_2': 23.0}], '5': [{'_1': 12.0, '_2': 14.5}, {'_1': 19.5, '_2': 23.0}], '6': [{'_1': 12.0, '_2': 14.5}, {'_1': 19.5, '_2': 23.0}]}",4.2,60
247,ChIJHxzw2Rlu5kcREm706GCn4ro,48.8659308,2.3488226,aveK,"{'0': [{'_1': 0.0, '_2': 2.0}], '1': [{'_1': 18.0, '_2': 24.0}], '2': [{'_1': 0.0, '_2': 2.0}, {'_1': 18.0, '_2': 24.0}], '3': [{'_1': 0.0, '_2': 2.0}, {'_1': 18.0, '_2': 24.0}], '4': [{'_1': 0.0, '_2': 2.0}, {'_1': 18.0, '_2': 24.0}], '5': [{'_1': 0.0, '_2': 2.0}, {'_1': 18.0, '_2': 24.0}], '6': [{'_1': 0.0, '_2': 2.0}, {'_1': 18.0, '_2': 24.0}]}",4.5,60
248,ChIJlQWhKNlx5kcRfsTLTIf-RYw,48.8535098,2.3377589,Maison burgers,"{'0': [{'_1': 12.0, '_2': 23.0}], '1': [{'_1': 12.0, '_2': 14.5}, {'_1': 19.5, '_2': 22.5}], '2': [{'_1': 12.0, '_2': 14.5}, {'_1': 19.5, '_2': 22.5}], '3': [{'_1': 12.0, '_2': 14.5}, {'_1': 19.5, '_2': 22.5}], '4': [{'_1': 12.0, '_2': 14.5}, {'_1': 19.5, '_2': 22.5}], '5': [{'_1': 12.0, '_2': 14.5}, {'_1': 19.5, '_2': 22.5}], '6': [{'_1': 12.0, '_2': 23.0}]}",4.1,60
249,ChIJR_85TRJu5kcR_ZnKjkAXKeM,48.8729617,2.3542561,Melisse,"{'0': [], '1': [], '2': [], '3': [], '4': [], '5': [], '6': []}",0.0,60
250,ChIJtZPUsRNu5kcRG-bThWQnVAc,48.87291799999999,2.353734,La Ferme,"{'0': [{'_1': 7.0, '_2': 24.0}, {'_1': 0.0, '_2': 2.0}], '1': [{'_1': 0.0, '_2': 2.0}, {'_1': 7.0, '_2': 24.0}], '2': [{'_1': 0.0, '_2': 2.0}, {'_1': 7.0, '_2': 24.0}], '3': [{'_1': 0.0, '_2': 2.0}, {'_1': 7.0, '_2': 24.0}], '4': [{'_1': 0.0, '_2': 2.0}, {'_1': 7.0, '_2': 24.0}], '5': [{'_1': 0.0, '_2': 2.0}, {'_1': 7.0, '_2': 24.0}], '6': [{'_1': 0.0, '_2': 2.0}, {'_1': 7.0, '_2': 24.0}]}",4.6,60
251,ChIJ4cxErsJt5kcRx7azmslo7mg,48.8760888,2.3803603,Le Bolivar,"{'0': [], '1': [], '2': [], '3': [], '4': [], '5': [], '6': []}",1.0,60
252,ChIJ7wm1TQpu5kcR-FnYqi3om3U,48.8726381,2.3657583,Bar Chevere,"{'0': [], '1': [], '2': [], '3': [], '4': [], '5': [], '6': []}",5.0,60
253,ChIJ0Y5OaFtt5kcRAbXUBEwSFIY,48.862837,2.441523,Les Monédières,"{'0': [], '1': [], '2': [], '3': [], '4': [], '5': [], '6': []}",2.5,60
254,ChIJNQCWs19u5kcRsBCmD-9Pry8,48.8941215,2.3457738,Les Fondus de la Raclette Paris 18ème Jules Joffrin,"{'0': [{'_1': 12.0, '_2': 15.0}, {'_1': 19.0, '_2': 23.0}], '1': [{'_1': 12.0, '_2': 14.5}, {'_1': 19.0, '_2': 23.0}], '2': [{'_1': 12.0, '_2': 14.5}, {'_1': 19.0, '_2': 23.0}], '3': [{'_1': 12.0, '_2': 14.5}, {'_1': 19.0, '_2': 23.0}], '4': [{'_1': 12.0, '_2': 14.5}, {'_1': 19.0, '_2': 23.0}], '5': [{'_1': 12.0, '_2': 14.5}, {'_1': 19.0, '_2': 23.5}], '6': [{'_1': 12.0, '_2': 14.5}, {'_1': 19.0, '_2': 23.5}]}",3.3,60
255,ChIJY0M7xwBy5kcRuM8mk7wcSBo,48.85425,2.371704100000001,Chantier Interdit,"{'0': [{'_1': 17.0, '_2': 24.0}, {'_1': 0.0, '_2': 4.0}], '1': [{'_1': 0.0, '_2': 2.0}, {'_1': 17.0, '_2': 24.0}], '2': [{'_1': 0.0, '_2': 2.0}, {'_1': 17.0, '_2': 24.0}], '3': [{'_1': 0.0, '_2': 2.0}, {'_1': 17.0, '_2': 24.0}], '4': [{'_1': 0.0, '_2': 2.0}, {'_1': 17.0, '_2': 24.0}], '5': [{'_1': 0.0, '_2': 4.0}, {'_1': 17.0, '_2': 24.0}], '6': [{'_1': 0.0, '_2': 4.0}, {'_1': 17.0, '_2': 24.0}]}",3.4,60
256,ChIJT3cW5Uxu5kcRqdcjgAKM_q0,48.8835096,2.3262349,James Bún,"{'0': [{'_1': 12.0, '_2': 23.0}], '1': [{'_1': 12.0, '_2': 23.0}], '2': [{'_1': 12.0, '_2': 23.0}], '3': [{'_1': 12.0, '_2': 23.0}], '4': [{'_1': 12.0, '_2': 23.0}], '5': [{'_1': 12.0, '_2': 23.0}], '6': [{'_1': 12.0, '_2': 23.0}]}",4.2,60
257,ChIJXa1mj3Zu5kcRFNdz00IADc8,48.8823218,2.3688816,La Pointe Lafayette,"{'0': [], '1': [], '2': [], '3': [], '4': [], '5': [], '6': []}",3.3,60
258,ChIJuZvdav1t5kcR0fyWsPAzRF4,48.86424419999999,2.3688665,Migozzi SAS Alexandre,"{'0': [], '1': [], '2': [], '3': [], '4': [], '5': [], '6': []}",0.0,60
259,ChIJ6Sw6Z1tt5kcRUkcAmxfTrTQ,48.86299930000001,2.441328,Gangnam Grillade,"{'0': [{'_1': 10.5, '_2': 23.0}], '1': [{'_1': 10.5, '_2': 23.0}], '2': [{'_1': 10.5, '_2': 23.0}], '3': [{'_1': 10.5, '_2': 23.0}], '4': [{'_1': 10.5, '_2': 23.0}], '5': [{'_1': 10.5, '_2': 23.0}], '6': [{'_1': 10.5, '_2': 23.0}]}",4.8,60
260,ChIJk4TI-Rlu5kcRk6-pjAPstw0,48.86558749999999,2.3506646,Café Madam,"{'0': [{'_1': 10.0, '_2': 18.0}], '1': [], '2': [{'_1': 10.0, '_2': 18.0}], '3': [{'_1': 10.0, '_2': 18.0}], '4': [{'_1': 10.0, '_2': 18.0}], '5': [{'_1': 10.0, '_2': 18.0}], '6': [{'_1': 10.0, '_2': 18.0}]}",3.7,60
261,ChIJidehERpu5kcRBQAiaeAd2sQ,48.86537199999999,2.3518028,Thai Viet,"{'0': [], '1': [], '2': [], '3': [], '4': [], '5': [], '6': []}",3.6,60
262,ChIJkXODvRdu5kcRn9IGu8UNZ3k,48.8676095,2.347253100000001,Subway,"{'0': [{'_1': 8.5, '_2': 22.5}], '1': [{'_1': 8.5, '_2': 22.5}], '2': [{'_1': 8.5, '_2': 22.5}], '3': [{'_1': 8.5, '_2': 22.5}], '4': [{'_1': 8.5, '_2': 22.5}], '5': [{'_1': 8.5, '_2': 22.5}], '6': [{'_1': 8.5, '_2': 22.5}]}",3.2,60
263,ChIJHSoATQVu5kcRaOHIjSTctEw,48.8651837,2.3566092,Seka,"{'0': [], '1': [], '2': [], '3': [], '4': [], '5': [], '6': []}",0.0,60
264,ChIJVVXlCz5u5kcRbKexyJGhQbA,48.8716032,2.3446313,La Cour Saint Germain,"{'0': [], '1': [], '2': [], '3': [], '4': [], '5': [], '6': []}",0.0,60
265,ChIJwXpAEhpu5kcR6oHSMdOHi9g,48.8655078,2.3516825,Brasserie Le Français,"{'0': [], '1': [{'_1': 7.0, '_2': 21.0}], '2': [{'_1': 7.0, '_2': 21.0}], '3': [{'_1': 7.0, '_2': 21.0}], '4': [{'_1': 7.0, '_2': 21.0}], '5': [{'_1': 7.0, '_2': 21.0}], '6': [{'_1': 9.0, '_2': 18.0}]}",5.0,60
266,ChIJv7JzxxRu5kcR4erzMX_tZi8,48.8754079,2.3500513,Tesoro d'Italia,"{'0': [], '1': [{'_1': 12.0, '_2': 15.0}, {'_1': 18.5, '_2': 23.0}], '2': [{'_1': 12.0, '_2': 15.0}, {'_1': 18.5, '_2': 23.0}], '3': [{'_1': 12.0, '_2': 15.0}, {'_1': 18.5, '_2': 23.0}], '4': [{'_1': 12.0, '_2': 15.0}, {'_1': 18.5, '_2': 23.0}], '5': [{'_1': 12.0, '_2': 15.0}, {'_1': 18.5, '_2': 23.0}], '6': [{'_1': 12.0, '_2': 15.0}, {'_1': 18.5, '_2': 23.0}]}",4.3,60
267,ChIJsxCrwBNu5kcRxwc708bEZng,48.87243040000001,2.3532141,Toms High Fidelity Café,"{'0': [], '1': [], '2': [], '3': [], '4': [], '5': [], '6': []}",3.9,60
268,ChIJNX6w7hpu5kcRK7IlP2m7aHU,48.8644712,2.354634,Shabu Sha,"{'0': [{'_1': 12.0, '_2': 15.0}, {'_1': 19.0, '_2': 23.0}], '1': [{'_1': 12.0, '_2': 15.0}, {'_1': 19.0, '_2': 23.0}], '2': [{'_1': 19.0, '_2': 23.0}], '3': [{'_1': 19.0, '_2': 23.0}], '4': [{'_1': 12.0, '_2': 15.0}, {'_1': 19.0, '_2': 23.0}], '5': [{'_1': 12.0, '_2': 15.0}, {'_1': 19.0, '_2': 23.5}], '6': [{'_1': 12.0, '_2': 15.0}, {'_1': 19.0, '_2': 23.5}]}",4.2,60
269,ChIJ_Yeynd1t5kcRP2s8X-yccZ4,48.8766159,2.3766045,Sanchez-Sanchez Francisco,"{'0': [], '1': [], '2': [], '3': [], '4': [], '5': [], '6': []}",1.8,60
270,ChIJK_K0yABy5kcRoFDILmu6owA,48.8541353,2.3717446,Le Codebar,"{'0': [{'_1': 17.0, '_2': 24.0}, {'_1': 0.0, '_2': 2.0}], '1': [{'_1': 0.0, '_2': 2.0}, {'_1': 17.0, '_2': 24.0}], '2': [{'_1': 0.0, '_2': 2.0}, {'_1': 17.0, '_2': 24.0}], '3': [{'_1': 0.0, '_2': 2.0}, {'_1': 17.0, '_2': 24.0}], '4': [{'_1': 0.0, '_2': 2.0}, {'_1': 17.0, '_2': 24.0}], '5': [{'_1': 0.0, '_2': 2.0}, {'_1': 17.0, '_2': 24.0}], '6': [{'_1': 0.0, '_2': 2.0}, {'_1': 17.0, '_2': 24.0}]}",4.5,60
271,ChIJheDJGTpu5kcRTSs43nL_86E,48.87095850000001,2.3356336,Burger Année 50,"{'0': [{'_1': 9.0, '_2': 24.0}], '1': [{'_1': 9.0, '_2': 24.0}], '2': [{'_1': 9.0, '_2': 24.0}], '3': [{'_1': 9.0, '_2': 24.0}], '4': [{'_1': 9.0, '_2': 24.0}], '5': [{'_1': 9.0, '_2': 24.0}], '6': [{'_1': 9.0, '_2': 24.0}]}",0.0,60
272,ChIJV65XfRBu5kcRG4qrGFlVpUI,48.86646210000001,2.3536948,Bistrot De La Gaité,"{'0': [{'_1': 10.0, '_2': 22.5}], '1': [{'_1': 8.0, '_2': 24.0}], '2': [{'_1': 8.0, '_2': 24.0}], '3': [{'_1': 8.0, '_2': 24.0}], '4': [{'_1': 8.0, '_2': 24.0}], '5': [{'_1': 8.0, '_2': 24.0}], '6': [{'_1': 10.0, '_2': 24.0}]}",2.9,60
273,ChIJN3lbQU1u5kcRA4cqp_UATsg,48.8858924,2.3254845,Baromètre Le,"{'0': [], '1': [], '2': [], '3': [], '4': [], '5': [], '6': []}",4.0,60
274,ChIJ5zKavhRu5kcRZiTnhzJTXKI,48.8751973,2.3507216,Café Pélican,"{'0': [{'_1': 0.0, '_2': 2.0}], '1': [{'_1': 8.0, '_2': 24.0}], '2': [{'_1': 0.0, '_2': 2.0}, {'_1': 8.0, '_2': 24.0}], '3': [{'_1': 0.0, '_2': 2.0}, {'_1': 8.0, '_2': 24.0}], '4': [{'_1': 0.0, '_2': 2.0}, {'_1': 8.0, '_2': 24.0}], '5': [{'_1': 0.0, '_2': 2.0}, {'_1': 8.0, '_2': 24.0}], '6': [{'_1': 0.0, '_2': 2.0}, {'_1': 8.0, '_2': 24.0}]}",3.9,60
275,ChIJlVFBm91t5kcRr2kSSzYKuXA,48.8765146,2.3766217,Bolivar Atlas,"{'0': [], '1': [{'_1': 12.0, '_2': 14.5}, {'_1': 19.0, '_2': 22.5}], '2': [{'_1': 12.0, '_2': 14.5}, {'_1': 19.0, '_2': 22.5}], '3': [{'_1': 12.0, '_2': 14.5}, {'_1': 19.0, '_2': 22.5}], '4': [{'_1': 12.0, '_2': 14.5}, {'_1': 19.0, '_2': 22.5}], '5': [{'_1': 12.0, '_2': 14.5}, {'_1': 19.0, '_2': 22.5}], '6': [{'_1': 12.0, '_2': 14.5}, {'_1': 19.0, '_2': 22.5}]}",3.8,60
276,ChIJcRklrHly5kcRTwJJEpjyGUA,48.8522288,2.4027067,Chauvet Gerard Michel,"{'0': [], '1': [], '2': [], '3': [], '4': [], '5': [], '6': []}",0.0,60
277,ChIJZ3OMCT5u5kcROvQwqRWWWgU,48.8714144,2.3446993,Sunset Boulevard,"{'0': [{'_1': 12.0, '_2': 24.0}, {'_1': 0.0, '_2': 2.0}], '1': [{'_1': 10.0, '_2': 24.0}], '2': [{'_1': 0.0, '_2': 2.0}, {'_1': 10.0, '_2': 24.0}], '3': [{'_1': 0.0, '_2': 2.0}, {'_1': 10.0, '_2': 24.0}], '4': [{'_1': 0.0, '_2': 2.0}, {'_1': 10.0, '_2': 24.0}], '5': [{'_1': 0.0, '_2': 2.0}, {'_1': 10.0, '_2': 24.0}], '6': [{'_1': 0.0, '_2': 2.0}, {'_1': 10.0, '_2': 24.0}]}",3.6,60
278,ChIJr5qqME1u5kcRhyOsbRn_iEw,48.8852166,2.3251914,Lanna Café,"{'0': [{'_1': 18.5, '_2': 23.0}], '1': [{'_1': 18.5, '_2': 23.0}], '2': [{'_1': 12.0, '_2': 14.5}, {'_1': 18.5, '_2': 23.0}], '3': [{'_1': 12.0, '_2': 14.5}, {'_1': 18.5, '_2': 23.0}], '4': [{'_1': 12.0, '_2': 14.5}, {'_1': 18.5, '_2': 23.0}], '5': [{'_1': 12.0, '_2': 14.5}, {'_1': 18.5, '_2': 23.0}], '6': [{'_1': 18.5, '_2': 23.0}]}",3.9,60
279,ChIJ623DLHxMHRURXFdDNEZCcbM,32.0777793,34.7680882,Red meat,"{'0': [], '1': [], '2': [], '3': [], '4': [], '5': [], '6': []}",5.0,120
280,ChIJSRcMJg5u5kcRiCeFKPS-JbU,48.8691919,2.357238,Café du Théâtre,"{'0': [{'_1': 9.0, '_2': 22.0}], '1': [], '2': [{'_1': 9.0, '_2': 22.0}], '3': [{'_1': 9.0, '_2': 22.0}], '4': [{'_1': 9.0, '_2': 22.0}], '5': [{'_1': 9.0, '_2': 22.0}], '6': [{'_1': 9.0, '_2': 22.0}]}",5.0,60
281,ChIJ0YnpDhFu5kcR7F8ir5vDYmA,48.86989699999999,2.352978,Subway,"{'0': [{'_1': 10.0, '_2': 23.0}], '1': [{'_1': 10.0, '_2': 23.0}], '2': [{'_1': 10.0, '_2': 23.0}], '3': [{'_1': 10.0, '_2': 23.0}], '4': [{'_1': 10.0, '_2': 23.0}], '5': [{'_1': 10.0, '_2': 23.0}], '6': [{'_1': 10.0, '_2': 23.0}]}",3.4,60
282,ChIJwZArDQ9u5kcRb6SxhDAHXow,48.86731200000001,2.359993,Bistrot de la Bonne Cécile,"{'0': [{'_1': 11.75, '_2': 14.5}], '1': [], '2': [{'_1': 7.0, '_2': 22.5}], '3': [{'_1': 7.0, '_2': 22.5}], '4': [{'_1': 7.0, '_2': 22.5}], '5': [{'_1': 7.0, '_2': 22.5}], '6': [{'_1': 7.0, '_2': 22.5}]}",4.6,60
283,ChIJn74Uuw9u5kcReShi1e81S4I,48.8676632,2.358653599999999,Coltrane,"{'0': [], '1': [], '2': [], '3': [], '4': [], '5': [], '6': []}",4.1,60
284,ChIJQ9Qk4hBu5kcRhxGU2iO9rgQ,48.868536,2.3529,Ness Deli's,"{'0': [], '1': [], '2': [], '3': [], '4': [], '5': [], '6': []}",5.0,60
285,ChIJDXYOxnly5kcRl-qSPRQdaBo,48.8518512,2.401417,Zhuo,"{'0': [], '1': [], '2': [], '3': [], '4': [], '5': [], '6': []}",0.0,60
286,ChIJyy3wuBtu5kcRQY19g9u6nGI,48.862749,2.3521758,Hanano,"{'0': [], '1': [], '2': [], '3': [], '4': [], '5': [], '6': []}",3.8,60
287,ChIJg5wxPf1t5kcRi5kRnK4tauc,48.8646663,2.3697112,La Prune Folle,"{'0': [{'_1': 11.0, '_2': 17.0}, {'_1': 0.0, '_2': 1.5}], '1': [], '2': [{'_1': 18.0, '_2': 23.5}], '3': [{'_1': 18.0, '_2': 23.5}], '4': [{'_1': 18.0, '_2': 23.5}], '5': [{'_1': 18.0, '_2': 24.0}], '6': [{'_1': 0.0, '_2': 1.0}, {'_1': 11.0, '_2': 15.5}, {'_1': 18.0, '_2': 24.0}]}",4.0,60
288,ChIJ009fIjRu5kcRzJdDal6O_9E,48.872879,2.328905,Le Mondial,"{'0': [], '1': [{'_1': 7.0, '_2': 23.5}], '2': [{'_1': 7.0, '_2': 23.5}], '3': [{'_1': 7.0, '_2': 23.5}], '4': [{'_1': 7.0, '_2': 23.5}], '5': [{'_1': 7.0, '_2': 23.5}], '6': [{'_1': 7.0, '_2': 23.5}]}",2.8,60
289,ChIJj4XoSFtt5kcRyyGfOt8vJss,48.8637791,2.4418549,Djeddi Djamal,"{'0': [], '1': [], '2': [], '3': [], '4': [], '5': [], '6': []}",2.0,60
290,ChIJGW5qyxNu5kcRrNs24tdDAgY,48.8721446,2.3541195,La Distillerie de Paris,"{'0': [], '1': [], '2': [], '3': [], '4': [], '5': [], '6': []}",0.0,60
291,ChIJt4AJ16dqHRURP_iZUjKIuJA,32.32982629999999,34.8523129,Yorgos,"{'0': [{'_1': 10.0, '_2': 24.0}], '1': [{'_1': 0.0, '_2': 1.0}, {'_1': 10.0, '_2': 24.0}], '2': [{'_1': 0.0, '_2': 1.0}, {'_1': 10.0, '_2': 24.0}], '3': [{'_1': 0.0, '_2': 1.0}, {'_1': 10.0, '_2': 24.0}], '4': [{'_1': 0.0, '_2': 1.0}, {'_1': 10.0, '_2': 24.0}], '5': [{'_1': 0.0, '_2': 1.0}, {'_1': 9.0, '_2': 15.0}], '6': []}",4.8,120
292,ChIJ33au_xNu5kcRg3zBt7fkVFg,48.87119269999999,2.3518802,Mesken - Paris Börekçisi,"{'0': [{'_1': 10.0, '_2': 18.0}], '1': [{'_1': 8.0, '_2': 20.0}], '2': [{'_1': 8.0, '_2': 20.0}], '3': [{'_1': 8.0, '_2': 20.0}], '4': [{'_1': 8.0, '_2': 20.0}], '5': [{'_1': 8.0, '_2': 20.0}], '6': [{'_1': 8.0, '_2': 20.0}]}",4.8,60
293,ChIJwaohVkxu5kcRZY3U8z3-58Y,48.8838939,2.3269568,The Titan Club,"{'0': [{'_1': 23.0, '_2': 24.0}, {'_1': 0.0, '_2': 7.0}], '1': [{'_1': 0.0, '_2': 7.0}, {'_1': 23.0, '_2': 24.0}], '2': [{'_1': 0.0, '_2': 7.0}], '3': [], '4': [{'_1': 23.0, '_2': 24.0}], '5': [{'_1': 0.0, '_2': 7.0}, {'_1': 23.0, '_2': 24.0}], '6': [{'_1': 0.0, '_2': 7.0}, {'_1': 23.0, '_2': 24.0}]}",3.8,60
294,ChIJ37L6N_1t5kcRPiJ7oAPawGk,48.8651169,2.369147,La Cantine de l'Embuscade,"{'0': [], '1': [], '2': [{'_1': 12.0, '_2': 14.5}, {'_1': 19.5, '_2': 24.0}], '3': [{'_1': 12.0, '_2': 14.5}, {'_1': 19.5, '_2': 24.0}], '4': [{'_1': 12.0, '_2': 14.5}, {'_1': 19.5, '_2': 24.0}], '5': [{'_1': 12.0, '_2': 14.5}, {'_1': 19.5, '_2': 24.0}], '6': [{'_1': 19.5, '_2': 24.0}]}",4.3,60
295,ChIJBxqSKnxMHRUR6Ms3lbPIsUc,32.0777055,34.7684878,סיציליאנו,"{'0': [{'_1': 11.5, '_2': 23.0}], '1': [{'_1': 11.5, '_2': 23.0}], '2': [{'_1': 11.5, '_2': 23.0}], '3': [{'_1': 11.5, '_2': 23.0}], '4': [{'_1': 11.5, '_2': 23.0}], '5': [{'_1': 10.0, '_2': 15.0}], '6': [{'_1': 18.0, '_2': 24.0}]}",2.0,120
296,ChIJAQC0oxdu5kcRXtJEVpLb6gg,48.8676647,2.3477541,フレンチートゥゴー,"{'0': [], '1': [], '2': [], '3': [], '4': [], '5': [], '6': []}",0.0,60
297,ChIJ4-g2CBdu5kcRzxXr5lJ9Bwg,48.86793050000001,2.3482392,Foodi Jia-Ba-Buay,"{'0': [{'_1': 11.0, '_2': 15.0}], '1': [{'_1': 12.0, '_2': 14.5}], '2': [{'_1': 12.0, '_2': 14.5}], '3': [{'_1': 12.0, '_2': 14.5}, {'_1': 19.0, '_2': 22.0}], '4': [{'_1': 12.0, '_2': 14.5}, {'_1': 19.0, '_2': 22.0}], '5': [{'_1': 12.0, '_2': 14.5}, {'_1': 19.0, '_2': 22.0}], '6': [{'_1': 19.0, '_2': 22.0}]}",4.7,60
298,ChIJuWHpbRFu5kcRB_liGFJAGmE,48.8701991,2.3529787,Le Prado,"{'0': [{'_1': 7.0, '_2': 24.0}, {'_1': 0.0, '_2': 2.0}], '1': [{'_1': 7.0, '_2': 24.0}], '2': [{'_1': 0.0, '_2': 2.0}, {'_1': 7.0, '_2': 24.0}], '3': [{'_1': 0.0, '_2': 2.0}, {'_1': 7.0, '_2': 24.0}], '4': [{'_1': 0.0, '_2': 2.0}, {'_1': 7.0, '_2': 24.0}], '5': [{'_1': 0.0, '_2': 2.0}, {'_1': 7.0, '_2': 24.0}], '6': [{'_1': 0.0, '_2': 2.0}, {'_1': 7.0, '_2': 24.0}]}",4.1,60
299,ChIJXfBaL9lx5kcRZPucPqaz0Hk,48.8534332,2.3379713,Hoisin,"{'0': [], '1': [], '2': [], '3': [], '4': [], '5': [], '6': []}",0.0,60
300,ChIJocC1Y3ly5kcRpIXzCzNEThM,48.85029309999999,2.403816,Lvh,"{'0': [], '1': [], '2': [], '3': [], '4': [], '5': [], '6': []}",4.5,60
301,ChIJnYLnmZly5kcRgpLV4MN4Rus,48.8464023,2.429108100000001,Chez Antoine,"{'0': [{'_1': 11.0, '_2': 23.0}], '1': [{'_1': 10.5, '_2': 15.0}, {'_1': 17.5, '_2': 23.0}], '2': [{'_1': 10.5, '_2': 15.0}, {'_1': 16.0, '_2': 23.0}], '3': [{'_1': 10.5, '_2': 15.0}, {'_1': 16.0, '_2': 23.0}], '4': [{'_1': 10.5, '_2': 15.0}, {'_1': 16.0, '_2': 23.0}], '5': [{'_1': 10.5, '_2': 23.0}], '6': [{'_1': 10.5, '_2': 23.0}]}",4.7,60
302,ChIJ15akshNu5kcRrHPQEnsvf_k,48.872988,2.354218,Mamie Burger Faubourg St-Denis,"{'0': [{'_1': 8.0, '_2': 24.0}, {'_1': 0.0, '_2': 2.0}], '1': [{'_1': 0.0, '_2': 2.0}, {'_1': 8.0, '_2': 24.0}], '2': [{'_1': 0.0, '_2': 2.0}, {'_1': 8.0, '_2': 24.0}], '3': [{'_1': 0.0, '_2': 2.0}, {'_1': 8.0, '_2': 24.0}], '4': [{'_1': 0.0, '_2': 2.0}, {'_1': 8.0, '_2': 24.0}], '5': [{'_1': 0.0, '_2': 2.0}, {'_1': 8.0, '_2': 24.0}], '6': [{'_1': 0.0, '_2': 2.0}, {'_1': 8.0, '_2': 24.0}]}",4.0,60
303,ChIJ8QIXbBpu5kcRNCFQyu9sca4,48.86528439999999,2.3526087,Restaurant Argane SMJ Samir,"{'0': [], '1': [], '2': [], '3': [], '4': [], '5': [], '6': []}",0.0,60
304,ChIJj08B9Blu5kcRsZpXw__LfoU,48.8652509,2.3505839,H H Paris,"{'0': [], '1': [], '2': [], '3': [], '4': [], '5': [], '6': []}",0.0,60
305,ChIJN555Og5u5kcRjcUnjYZH6DQ,48.8691593,2.3577426,Ciacco,"{'0': [], '1': [], '2': [{'_1': 12.0, '_2': 14.5}, {'_1': 19.5, '_2': 23.0}], '3': [{'_1': 12.0, '_2': 14.5}, {'_1': 19.5, '_2': 23.0}], '4': [{'_1': 12.0, '_2': 14.5}, {'_1': 19.5, '_2': 23.0}], '5': [{'_1': 12.0, '_2': 14.5}, {'_1': 19.5, '_2': 23.0}], '6': [{'_1': 12.0, '_2': 14.5}, {'_1': 19.5, '_2': 23.0}]}",4.7,60
306,ChIJVSHnaxFu5kcR1nyBThZO4nM,48.8700737,2.352915799999999,Delicieux,"{'0': [{'_1': 10.0, '_2': 24.0}], '1': [{'_1': 10.0, '_2': 24.0}], '2': [{'_1': 10.0, '_2': 24.0}], '3': [{'_1': 10.0, '_2': 24.0}], '4': [{'_1': 10.0, '_2': 24.0}], '5': [{'_1': 10.0, '_2': 24.0}], '6': [{'_1': 10.0, '_2': 24.0}]}",4.7,60
307,ChIJ05dyZq5v5kcRUhoJU08o80Q,48.8891398,2.317956,Le Bocal,"{'0': [], '1': [], '2': [], '3': [], '4': [], '5': [], '6': []}",0.0,60
308,ChIJq9P75ZBx5kcRqL04ZVJF860,48.8278942,2.3495463,Pizza Cinq Diamants,"{'0': [], '1': [], '2': [{'_1': 12.0, '_2': 14.5}, {'_1': 18.0, '_2': 23.0}], '3': [{'_1': 12.0, '_2': 14.5}, {'_1': 18.0, '_2': 23.0}], '4': [{'_1': 12.0, '_2': 14.5}, {'_1': 18.0, '_2': 23.0}], '5': [{'_1': 12.0, '_2': 14.5}, {'_1': 18.0, '_2': 23.0}], '6': [{'_1': 12.0, '_2': 14.5}, {'_1': 18.0, '_2': 23.0}]}",4.1,60
309,ChIJ9wPDGP1t5kcRuU-2tWgnWOQ,48.8644444,2.3701153,Ober Mamma,"{'0': [{'_1': 12.25, '_2': 15.5}, {'_1': 19.0, '_2': 24.0}, {'_1': 0.0, '_2': 1.0}], '1': [{'_1': 0.0, '_2': 1.0}, {'_1': 12.25, '_2': 14.25}, {'_1': 19.0, '_2': 24.0}], '2': [{'_1': 0.0, '_2': 1.0}, {'_1': 12.25, '_2': 14.25}, {'_1': 19.0, '_2': 24.0}], '3': [{'_1': 0.0, '_2': 1.0}, {'_1': 12.25, '_2': 14.25}, {'_1': 19.0, '_2': 24.0}], '4': [{'_1': 0.0, '_2': 1.0}, {'_1': 12.25, '_2': 14.25}, {'_1': 18.0, '_2': 24.0}], '5': [{'_1': 0.0, '_2': 1.0}, {'_1': 12.25, '_2': 14.25}, {'_1': 18.0, '_2': 24.0}], '6': [{'_1': 0.0, '_2': 1.0}, {'_1': 12.25, '_2': 15.5}, {'_1': 18.0, '_2': 24.0}]}",4.4,60
310,ChIJXxWOR_hC5kcRDItQFeGADhI,49.0493692,2.3357184,Relais Des Chasseurs Au,"{'0': [], '1': [], '2': [], '3': [], '4': [], '5': [], '6': []}",0.0,60
311,ChIJX766O01u5kcR5rFhHgTNNhM,48.885351,2.3253306,Le Bouchon des Batignolles,"{'0': [{'_1': 12.0, '_2': 16.0}, {'_1': 0.0, '_2': 2.0}], '1': [{'_1': 19.0, '_2': 24.0}], '2': [{'_1': 0.0, '_2': 2.0}, {'_1': 19.0, '_2': 24.0}], '3': [{'_1': 0.0, '_2': 2.0}, {'_1': 19.0, '_2': 24.0}], '4': [{'_1': 0.0, '_2': 2.0}, {'_1': 19.0, '_2': 24.0}], '5': [{'_1': 0.0, '_2': 2.0}, {'_1': 19.0, '_2': 24.0}], '6': [{'_1': 0.0, '_2': 2.0}, {'_1': 19.0, '_2': 24.0}]}",4.1,60
312,ChIJJV7aHIAN5kcRNcr8CD6974k,48.879936,2.386241,Rosa Bonheur,"{'0': [{'_1': 10.0, '_2': 24.0}], '1': [], '2': [], '3': [], '4': [{'_1': 12.0, '_2': 24.0}], '5': [{'_1': 12.0, '_2': 24.0}], '6': [{'_1': 10.0, '_2': 24.0}]}",3.9,60
313,ChIJlfKL6Uxu5kcRPp9ZT5rFJuo,48.8833403,2.3255428,Restaurant Japonais Yamato,"{'0': [], '1': [], '2': [], '3': [], '4': [], '5': [], '6': []}",4.3,60
314,ChIJ05xmohRu5kcRaiApCWEexQc,48.8749954,2.3511162,66 YEAST,"{'0': [], '1': [{'_1': 12.0, '_2': 14.5}], '2': [{'_1': 12.0, '_2': 14.5}, {'_1': 19.5, '_2': 22.5}], '3': [{'_1': 12.0, '_2': 14.5}, {'_1': 19.5, '_2': 22.5}], '4': [{'_1': 12.0, '_2': 14.5}, {'_1': 19.5, '_2': 22.5}], '5': [{'_1': 12.0, '_2': 14.5}, {'_1': 19.5, '_2': 22.5}], '6': []}",4.4,60
315,ChIJ90RESwpu5kcRnldptNJUsus,48.87242329999999,2.3655424,La perla ai bisaitei,"{'0': [], '1': [], '2': [], '3': [], '4': [], '5': [], '6': []}",0.0,60
316,ChIJLe_gf6hqHRURvAWNBXSMYr4,32.3307915,34.8515517,Pizza Hut,"{'0': [{'_1': 11.0, '_2': 24.0}], '1': [{'_1': 11.0, '_2': 24.0}], '2': [{'_1': 11.0, '_2': 24.0}], '3': [{'_1': 11.0, '_2': 24.0}], '4': [{'_1': 11.0, '_2': 24.0}], '5': [{'_1': 11.0, '_2': 15.0}], '6': [{'_1': 17.75, '_2': 24.0}]}",3.5,120
317,ChIJ4wqtXSNy5kcR9srrmxgwK3g,48.8308653,2.3747326,YUMAN café et restaurant,"{'0': [], '1': [{'_1': 10.0, '_2': 14.5}], '2': [{'_1': 10.0, '_2': 14.5}, {'_1': 19.0, '_2': 24.0}], '3': [{'_1': 10.0, '_2': 14.5}, {'_1': 19.0, '_2': 24.0}], '4': [{'_1': 10.0, '_2': 14.5}, {'_1': 19.0, '_2': 24.0}], '5': [{'_1': 10.0, '_2': 14.5}, {'_1': 19.0, '_2': 24.0}], '6': [{'_1': 10.0, '_2': 24.0}]}",3.8,60
318,ChIJ-9MWiHZu5kcRlQ7AypiZQsQ,48.881656,2.366496,Wako,"{'0': [{'_1': 18.0, '_2': 23.0}], '1': [{'_1': 11.5, '_2': 15.0}, {'_1': 18.0, '_2': 23.0}], '2': [{'_1': 11.5, '_2': 15.0}, {'_1': 18.0, '_2': 23.0}], '3': [{'_1': 11.5, '_2': 15.0}, {'_1': 18.0, '_2': 23.0}], '4': [{'_1': 11.5, '_2': 15.0}, {'_1': 18.0, '_2': 23.0}], '5': [{'_1': 11.5, '_2': 15.0}, {'_1': 18.0, '_2': 23.0}], '6': [{'_1': 11.5, '_2': 15.0}, {'_1': 18.0, '_2': 23.0}]}",4.2,60
319,ChIJn16Z9hlu5kcRRf0KtC8HuNs,48.8652509,2.3505839,CHEZ ARSENE,"{'0': [], '1': [], '2': [], '3': [], '4': [], '5': [], '6': []}",0.0,60
320,ChIJ___PohRu5kcR8w6VWmWRkIQ,48.87509379999999,2.3509834,Paradis Trente Trois,"{'0': [], '1': [], '2': [], '3': [], '4': [], '5': [], '6': []}",0.0,60
321,ChIJ___jMRFu5kcRMOgO_IzZYv8,48.86931789999999,2.3515812,Sama baalbeck,"{'0': [], '1': [{'_1': 11.5, '_2': 21.0}], '2': [{'_1': 11.5, '_2': 21.0}], '3': [{'_1': 11.5, '_2': 21.0}], '4': [{'_1': 11.5, '_2': 21.0}], '5': [{'_1': 11.5, '_2': 21.0}], '6': [{'_1': 12.0, '_2': 21.5}]}",5.0,60
322,ChIJc0we7Hly5kcRAA8hqaBTTxk,48.8509004,2.4013065,Restaurant Chinois,"{'0': [], '1': [], '2': [], '3': [], '4': [], '5': [], '6': []}",1.0,60
323,ChIJYauphhlu5kcRjWBq2CaP6Qw,48.8640017,2.3503816,Matsushi,"{'0': [], '1': [], '2': [], '3': [], '4': [], '5': [], '6': []}",0.0,60
324,ChIJo25ItBZu5kcR2J88n12o0G4,48.8701873,2.3513897,Atelier Teullere,"{'0': [], '1': [], '2': [], '3': [], '4': [], '5': [], '6': []}",0.0,60
325,ChIJPbooHjpu5kcReCZ70_mYO3Q,48.8714854,2.3356743,Snc Resto Italiens,"{'0': [], '1': [], '2': [], '3': [], '4': [], '5': [], '6': []}",0.0,60
326,ChIJ6drsGDpu5kcRfxwba_TtgcA,48.87107959999999,2.3357588,Jjf3,"{'0': [], '1': [], '2': [], '3': [], '4': [], '5': [], '6': []}",0.0,60
327,ChIJA0hdxRlu5kcR6_cYlFPrids,48.8655579,2.3486599,Woo,"{'0': [], '1': [], '2': [], '3': [], '4': [], '5': [], '6': []}",0.0,60
328,ChIJLYfvzBNu5kcRW2ZfP1fdAcE,48.8719023,2.3539938,PARIS NEW YORK Faubourg Saint-Denis,"{'0': [{'_1': 12.0, '_2': 16.0}, {'_1': 19.0, '_2': 23.5}], '1': [{'_1': 12.0, '_2': 15.0}, {'_1': 19.0, '_2': 23.5}], '2': [{'_1': 12.0, '_2': 15.0}, {'_1': 19.0, '_2': 23.5}], '3': [{'_1': 12.0, '_2': 15.0}, {'_1': 19.0, '_2': 23.5}], '4': [{'_1': 12.0, '_2': 15.0}, {'_1': 19.0, '_2': 23.5}], '5': [{'_1': 12.0, '_2': 15.0}, {'_1': 19.0, '_2': 23.5}], '6': [{'_1': 12.0, '_2': 16.0}, {'_1': 19.0, '_2': 23.5}]}",4.2,60
329,ChIJPdBlkjxy5kcRb32WL5SlqmI,48.8315808,2.3782024,Korum Café,"{'0': [], '1': [{'_1': 7.0, '_2': 20.0}], '2': [{'_1': 7.0, '_2': 20.0}], '3': [{'_1': 7.0, '_2': 20.0}], '4': [{'_1': 7.0, '_2': 20.0}], '5': [{'_1': 7.0, '_2': 20.0}], '6': [{'_1': 13.0, '_2': 19.0}]}",3.2,60
330,ChIJTffNKnxMHRURV-GIkKYEvQw,32.0775839,34.7682229,Burger Bar 39,"{'0': [{'_1': 12.25, '_2': 24.0}], '1': [{'_1': 12.25, '_2': 24.0}], '2': [{'_1': 12.25, '_2': 24.0}], '3': [{'_1': 12.25, '_2': 24.0}], '4': [{'_1': 12.25, '_2': 24.0}], '5': [{'_1': 12.0, '_2': 17.0}], '6': [{'_1': 18.0, '_2': 24.0}]}",3.9,120
331,ChIJ_4_ubhpu5kcRVnA4ouw6Sas,48.8653115,2.3528175,La Cabane,"{'0': [], '1': [], '2': [], '3': [], '4': [], '5': [], '6': []}",0.0,60
332,ChIJJegNxnly5kcRdGKqAduRriE,48.8518485,2.4014182,Sanabile,"{'0': [], '1': [], '2': [], '3': [{'_1': 7.0, '_2': 20.0}], '4': [], '5': [], '6': []}",1.0,60
333,ChIJP0-wL-Zt5kcRrB69G6Ly8F8,48.87257270000001,2.3790189,Le Celtic,"{'0': [], '1': [], '2': [], '3': [], '4': [], '5': [], '6': []}",4.0,60
334,ChIJl2uCsNfd4EcRzaVgtSE_R38,49.443471,1.0937084,Bar flo's café,"{'0': [], '1': [], '2': [], '3': [], '4': [], '5': [], '6': []}",4.3,60
335,ChIJ47_orxdu5kcR9-UbXDMFDHY,48.8678894,2.3473924,La Garçonnière,"{'0': [{'_1': 13.5, '_2': 18.0}], '1': [], '2': [{'_1': 11.0, '_2': 20.0}], '3': [{'_1': 11.0, '_2': 20.0}], '4': [{'_1': 11.0, '_2': 20.0}], '5': [{'_1': 11.0, '_2': 20.0}], '6': [{'_1': 11.0, '_2': 20.0}]}",4.7,60
336,ChIJ8VLX4T1u5kcRN6siPO0byPw,48.8714444,2.344706,SSSSUNSET,"{'0': [], '1': [], '2': [], '3': [], '4': [], '5': [], '6': []}",0.0,60
337,ChIJ-4hW8xlu5kcR21gdqmVZM_w,48.8649381,2.3504377,Le 37m2 Saint-Denis,"{'0': [{'_1': 12.0, '_2': 19.0}], '1': [], '2': [{'_1': 12.0, '_2': 19.0}], '3': [{'_1': 12.0, '_2': 19.0}], '4': [{'_1': 12.0, '_2': 19.0}], '5': [{'_1': 12.0, '_2': 19.0}], '6': [{'_1': 12.0, '_2': 19.0}]}",4.8,60
338,ChIJ08ve8A5u5kcREXame84zn14,48.86930069999999,2.3601478,Nafa Restaurant,"{'0': [], '1': [], '2': [], '3': [], '4': [], '5': [], '6': []}",0.0,60
339,ChIJRZHRpAtu5kcR7_-TuXzjTyg,48.8728025,2.3647187,Marcel,"{'0': [{'_1': 9.0, '_2': 23.5}], '1': [{'_1': 9.0, '_2': 23.5}], '2': [{'_1': 9.0, '_2': 23.5}], '3': [{'_1': 9.0, '_2': 23.5}], '4': [{'_1': 9.0, '_2': 23.5}], '5': [{'_1': 9.0, '_2': 23.5}], '6': [{'_1': 9.0, '_2': 23.5}]}",3.9,60
340,ChIJ32XOTg5u5kcRUs_9jYE2VPM,48.86896,2.3585062,Le Fil Rouge Café,"{'0': [{'_1': 12.0, '_2': 15.0}], '1': [{'_1': 12.0, '_2': 15.0}, {'_1': 19.0, '_2': 23.5}], '2': [{'_1': 12.0, '_2': 15.0}, {'_1': 19.0, '_2': 23.5}], '3': [{'_1': 12.0, '_2': 15.0}, {'_1': 19.0, '_2': 23.5}], '4': [{'_1': 12.0, '_2': 15.0}, {'_1': 19.0, '_2': 23.5}], '5': [{'_1': 12.0, '_2': 15.0}, {'_1': 19.0, '_2': 23.5}], '6': [{'_1': 12.0, '_2': 15.0}, {'_1': 19.0, '_2': 23.5}]}",3.9,60
341,ChIJTQJD2hFu5kcRn82QmjdVMOk,48.869291,2.3563113,Les Coulisses,"{'0': [{'_1': 7.0, '_2': 24.0}, {'_1': 0.0, '_2': 2.0}], '1': [{'_1': 0.0, '_2': 2.0}, {'_1': 7.0, '_2': 24.0}], '2': [{'_1': 0.0, '_2': 2.0}, {'_1': 7.0, '_2': 24.0}], '3': [{'_1': 0.0, '_2': 2.0}, {'_1': 7.0, '_2': 24.0}], '4': [{'_1': 0.0, '_2': 2.0}, {'_1': 7.0, '_2': 24.0}], '5': [{'_1': 0.0, '_2': 2.0}, {'_1': 7.0, '_2': 24.0}], '6': [{'_1': 0.0, '_2': 2.0}, {'_1': 7.0, '_2': 24.0}]}",3.0,60
342,ChIJe0yD3RFu5kcRjKIHw4EbzSk,48.8697926,2.3563179,Maison Burger,"{'0': [{'_1': 12.0, '_2': 15.0}, {'_1': 19.5, '_2': 22.5}], '1': [{'_1': 12.0, '_2': 14.5}, {'_1': 19.5, '_2': 22.5}], '2': [{'_1': 12.0, '_2': 14.5}, {'_1': 19.5, '_2': 22.5}], '3': [{'_1': 12.0, '_2': 14.5}, {'_1': 19.5, '_2': 22.5}], '4': [{'_1': 12.0, '_2': 14.5}, {'_1': 19.5, '_2': 22.5}], '5': [{'_1': 12.0, '_2': 14.5}, {'_1': 19.5, '_2': 23.0}], '6': [{'_1': 12.0, '_2': 15.0}, {'_1': 19.5, '_2': 23.0}]}",4.2,60
343,ChIJxRZW4xFu5kcRUVH2tKYPMIw,48.87059110000001,2.3566314,Modern Times,"{'0': [], '1': [], '2': [], '3': [], '4': [], '5': [], '6': []}",0.0,60
344,ChIJITEOuBNu5kcRW8Gk8N5Qqgo,48.872231,2.353831,TERRA CORSA Petites-Écuries,"{'0': [{'_1': 10.0, '_2': 22.0}], '1': [{'_1': 10.0, '_2': 22.0}], '2': [{'_1': 10.0, '_2': 22.0}], '3': [{'_1': 10.0, '_2': 22.0}], '4': [{'_1': 10.0, '_2': 22.0}], '5': [{'_1': 10.0, '_2': 22.0}], '6': [{'_1': 10.0, '_2': 22.0}]}",3.4,60
345,ChIJ009qyBpu5kcRsFXONSfnL44,48.8646702,2.3557207,Coin de Paradis,"{'0': [], '1': [], '2': [], '3': [], '4': [], '5': [], '6': []}",3.4,60
346,ChIJ1X87K3xMHRURU1V5LzZAHaE,32.0777809,34.7683579,Mexicana,"{'0': [{'_1': 12.0, '_2': 23.75}], '1': [{'_1': 12.0, '_2': 23.75}], '2': [{'_1': 12.0, '_2': 23.75}], '3': [{'_1': 12.0, '_2': 23.75}], '4': [{'_1': 12.0, '_2': 23.75}], '5': [{'_1': 12.0, '_2': 23.75}], '6': [{'_1': 12.0, '_2': 23.75}]}",3.9,120
347,ChIJHbJu2hFu5kcRFtmBKTTn-54,48.86925960000001,2.356318599999999,Le bistrot d'en face,"{'0': [], '1': [], '2': [], '3': [], '4': [], '5': [], '6': []}",1.0,60
348,ChIJ41pXHw5u5kcRdIXM1No1YiE,48.869831,2.35714,CopperBay,"{'0': [{'_1': 0.0, '_2': 2.0}], '1': [], '2': [{'_1': 18.0, '_2': 24.0}], '3': [{'_1': 0.0, '_2': 2.0}, {'_1': 18.0, '_2': 24.0}], '4': [{'_1': 0.0, '_2': 2.0}, {'_1': 18.0, '_2': 24.0}], '5': [{'_1': 0.0, '_2': 2.0}, {'_1': 18.0, '_2': 24.0}], '6': [{'_1': 0.0, '_2': 2.0}, {'_1': 18.0, '_2': 24.0}]}",4.6,60
349,ChIJJ0cZExlu5kcRtLo8-d_pz-E,48.8628578,2.3491391,Le Quid,"{'0': [{'_1': 0.0, '_2': 2.0}], '1': [{'_1': 12.0, '_2': 15.0}, {'_1': 17.0, '_2': 24.0}], '2': [{'_1': 0.0, '_2': 2.0}, {'_1': 12.0, '_2': 15.0}, {'_1': 17.0, '_2': 24.0}], '3': [{'_1': 0.0, '_2': 2.0}, {'_1': 12.0, '_2': 15.0}, {'_1': 17.0, '_2': 24.0}], '4': [{'_1': 0.0, '_2': 2.0}, {'_1': 12.0, '_2': 15.0}, {'_1': 17.0, '_2': 24.0}], '5': [{'_1': 0.0, '_2': 2.0}, {'_1': 12.0, '_2': 15.0}, {'_1': 17.0, '_2': 24.0}], '6': [{'_1': 0.0, '_2': 2.0}, {'_1': 17.0, '_2': 24.0}]}",3.9,60
350,ChIJcc0XSxFu5kcR1W4TNp8h0_U,48.870165,2.351340999999999,Au Petit Duc,"{'0': [], '1': [], '2': [], '3': [], '4': [], '5': [], '6': []}",2.9,60
351,ChIJDRuDgBdu5kcRDD-5f_7vLmI,48.8662715,2.3478704,Vino & Cucina,"{'0': [{'_1': 18.0, '_2': 24.0}, {'_1': 0.0, '_2': 2.0}], '1': [{'_1': 0.0, '_2': 2.0}, {'_1': 18.0, '_2': 24.0}], '2': [{'_1': 0.0, '_2': 2.0}, {'_1': 18.0, '_2': 24.0}], '3': [{'_1': 0.0, '_2': 2.0}, {'_1': 18.0, '_2': 24.0}], '4': [{'_1': 0.0, '_2': 2.0}, {'_1': 18.0, '_2': 24.0}], '5': [{'_1': 0.0, '_2': 2.0}, {'_1': 18.0, '_2': 24.0}], '6': [{'_1': 0.0, '_2': 2.0}, {'_1': 18.0, '_2': 24.0}]}",3.4,60
352,ChIJJYbLohRu5kcR1xZtz5QBk8k,48.8752158,2.3509985,Le Scherkhan,"{'0': [{'_1': 0.0, '_2': 2.0}], '1': [{'_1': 8.5, '_2': 24.0}], '2': [{'_1': 0.0, '_2': 2.0}, {'_1': 8.5, '_2': 24.0}], '3': [{'_1': 0.0, '_2': 2.0}, {'_1': 8.5, '_2': 24.0}], '4': [{'_1': 0.0, '_2': 2.0}, {'_1': 8.5, '_2': 24.0}], '5': [{'_1': 0.0, '_2': 2.0}, {'_1': 8.5, '_2': 24.0}], '6': [{'_1': 0.0, '_2': 2.0}, {'_1': 18.5, '_2': 24.0}]}",3.6,60
353,ChIJ_____4JMHRURkePqdliMMF0,32.0778794,34.7676515,Salva Vida,"{'0': [{'_1': 7.0, '_2': 12.5}, {'_1': 18.0, '_2': 23.0}], '1': [{'_1': 7.0, '_2': 12.5}, {'_1': 18.0, '_2': 23.0}], '2': [{'_1': 7.0, '_2': 12.5}, {'_1': 18.0, '_2': 23.0}], '3': [{'_1': 7.0, '_2': 12.5}, {'_1': 18.0, '_2': 23.0}], '4': [{'_1': 7.0, '_2': 12.5}, {'_1': 18.0, '_2': 23.0}], '5': [{'_1': 7.0, '_2': 13.5}, {'_1': 18.0, '_2': 23.0}], '6': [{'_1': 7.0, '_2': 14.5}, {'_1': 18.0, '_2': 23.0}]}",4.3,120
354,ChIJy3iVhC9u5kcR1cCYgwGPi3A,48.8644074,2.3332946,Nodaïwa,"{'0': [], '1': [{'_1': 12.0, '_2': 14.5}, {'_1': 19.0, '_2': 22.0}], '2': [{'_1': 12.0, '_2': 14.5}, {'_1': 19.0, '_2': 22.0}], '3': [{'_1': 12.0, '_2': 14.5}, {'_1': 19.0, '_2': 22.0}], '4': [{'_1': 12.0, '_2': 14.5}, {'_1': 19.0, '_2': 22.0}], '5': [{'_1': 12.0, '_2': 14.5}, {'_1': 19.0, '_2': 22.0}], '6': [{'_1': 12.0, '_2': 14.5}, {'_1': 19.0, '_2': 22.0}]}",4.4,60
