{"id":"ChIJa6LNPgpu5kcRhgsb7MbmHw8","latitude":48.8719869,"longitude":2.366609,"name":"PRUNE DE NUIT","opening_hours":{"0":[],"1":[],"2":[],"3":[],"4":[],"5":[],"6":[]},"rating":4.8,"utc_offset":60}
{"id":"ChIJaVQu_JBx5kcRJfHbsRGxRB0","latitude":48.82822900000001,"longitude":2.3501436,"name":"Cafe du Commerce","opening_hours":{"0":[{"_1":12.0,"_2":15.0},{"_1":19.0,"_2":24.0},{"_1":0.0,"_2":2.0}],"1":[{"_1":0.0,"_2":2.0}],"2":[{"_1":12.0,"_2":15.0},{"_1":19.0,"_2":24.0}],"3":[{"_1":0.0,"_2":2.0},{"_1":12.0,"_2":15.0},{"_1":19.0,"_2":24.0}],"4":[{"_1":0.0,"_2":2.0},{"_1":12.0,"_2":15.0},{"_1":19.0,"_2":24.0}],"5":[{"_1":0.0,"_2":2.0},{"_1":12.0,"_2":15.0},{"_1":19.0,"_2":24.0}],"6":[{"_1":0.0,"_2":2.0},{"_1":12.0,"_2":15.0},{"_1":19.0,"_2":24.0}]},"rating":3.8,"utc_offset":60}
{"id":"ChIJ773XIjRu5kcRsQxQXK-vgjc","latitude":48.8728825,"longitude":2.3290334,"name":"Ce 9","opening_hours":{"0":[],"1":[],"2":[],"3":[],"4":[],"5":[],"6":[]},"rating":0.0,"utc_offset":60}
{"id":"ChIJ75q8H_hC5kcRyqJmeICPr2Y","latitude":49.0482166,"longitude":2.3362524,"name":"Morocco Restaurant","opening_hours":{"0":[{"_1":12.0,"_2":14.5}],"1":[],"2":[{"_1":12.0,"_2":14.5},{"_1":19.0,"_2":22.5}],"3":[{"_1":12.0,"_2":14.5},{"_1":19.0,"_2":22.5}],"4":[{"_1":12.0,"_2":14.5},{"_1":19.0,"_2":22.5}],"5":[{"_1":12.0,"_2":14.5},{"_1":19.0,"_2":22.5}],"6":[{"_1":12.0,"_2":14.5},{"_1":19.0,"_2":22.5}]},"rating":3.7,"utc_offset":60}
{"id":"ChIJQ64x_xVu5kcRSExgSm4ySNA","latitude":48.8715366,"longitude":2.3457812,"name":"Okinawa Sushi","opening_hours":{"0":[{"_1":19.25,"_2":23.0}],"1":[{"_1":11.5,"_2":14.5},{"_1":19.25,"_2":23.0}],"2":[{"_1":11.5,"_2":14.5},{"_1":19.25,"_2":23.0}],"3":[{"_1":11.5,"_2":14.5},{"_1":19.25,"_2":23.0}],"4":[{"_1":11.5,"_2":14.5},{"_1":19.25,"_2":23.0}],"5":[{"_1":11.5,"_2":14.5},{"_1":19.25,"_2":23.0}],"6":[{"_1":11.5,"_2":14.5},{"_1":19.25,"_2":23.0}]},"rating":3.6,"utc_offset":60}
{"id":"ChIJnSdJuBtu5kcRDjV7OcUbw3U","latitude":48.8628654,"longitude":2.352111599999999,"name":"Sainmart","opening_hours":{"0":[],"1":[],"2":[],"3":[],"4":[],"5":[],"6":[]},"rating":0.0,"utc_offset":60}
{"id":"ChIJR2qQ4vxt5kcRFDrt-Xn8Z58","latitude":48.8639709,"longitude":2.3704037,"name":"Sarl Rihosa Hopson","opening_hours":{"0":[],"1":[],"2":[],"3":[],"4":[],"5":[],"6":[]},"rating":0.0,"utc_offset":60}
{"id":"ChIJ_xqB6TZu5kcRygNHisEgUaM","latitude":48.8730121,"longitude":2.3307481,"name":"Cafe Paulette","opening_hours":{"0":[{"_1":11.0,"_2":19.0}],"1":[{"_1":9.5,"_2":21.5}],"2":[{"_1":9.5,"_2":21.5}],"3":[{"_1":9.5,"_2":21.5}],"4":[{"_1":9.5,"_2":21.5}],"5":[{"_1":9.5,"_2":21.5}],"6":[{"_1":9.5,"_2":21.5}]},"rating":0.0,"utc_offset":60}
{"id":"ChIJVSx9h35MHRURuTfjyIiRjV4","latitude":32.0774305,"longitude":34.7690306,"name":"Pizza Bograshov","opening_hours":{"0":[],"1":[],"2":[],"3":[],"4":[],"5":[],"6":[]},"rating":0.0,"utc_offset":120}
{"id":"ChIJPZrqSSNy5kcRJMI1PDVUt_Y","latitude":48.83101509999999,"longitude":2.3759411,"name":"IT","opening_hours":{"0":[{"_1":12.0,"_2":22.5}],"1":[{"_1":8.0,"_2":22.5}],"2":[{"_1":8.0,"_2":22.5}],"3":[{"_1":8.0,"_2":22.5}],"4":[{"_1":8.0,"_2":22.5}],"5":[{"_1":8.0,"_2":23.0}],"6":[{"_1":12.0,"_2":23.0}]},"rating":3.6,"utc_offset":60}
{"id":"ChIJPzv6lBNu5kcRjvR_SxkHCwg","latitude":48.87255930000001,"longitude":2.3526261,"name":"Groupe Flo","opening_hours":{"0":[],"1":[],"2":[],"3":[],"4":[],"5":[],"6":[]},"rating":0.0,"utc_offset":60}
{"id":"ChIJK1czwhpu5kcR_o0mis0WhRs","latitude":48.8645289,"longitude":2.3551016,"name":"Happy Nouilles","opening_hours":{"0":[{"_1":11.5,"_2":22.5}],"1":[{"_1":11.5,"_2":22.5}],"2":[],"3":[{"_1":11.5,"_2":22.5}],"4":[{"_1":11.5,"_2":22.5}],"5":[{"_1":11.5,"_2":22.5}],"6":[{"_1":11.5,"_2":22.5}]},"rating":4.4,"utc_offset":60}
{"id":"ChIJES15TwVu5kcRZLONVxK0O78","latitude":48.86505520000001,"longitude":2.357302599999999,"name":"Le Lafon - Paris","opening_hours":{"0":[{"_1":0.0,"_2":0.25}],"1":[{"_1":6.5,"_2":24.0}],"2":[{"_1":0.0,"_2":2.0},{"_1":6.5,"_2":24.0}],"3":[{"_1":0.0,"_2":2.0},{"_1":6.5,"_2":24.0}],"4":[{"_1":0.0,"_2":2.0},{"_1":6.5,"_2":24.0}],"5":[{"_1":0.0,"_2":2.0},{"_1":6.5,"_2":24.0}],"6":[{"_1":0.0,"_2":2.0},{"_1":7.0,"_2":24.0}]},"rating":4.5,"utc_offset":60}
{"id":"ChIJJ0HsuBtu5kcRQIbNE1JiZzk","latitude":48.8626898,"longitude":2.3521434,"name":"Le Carlie","opening_hours":{"0":[{"_1":0.0,"_2":2.0}],"1":[],"2":[{"_1":18.0,"_2":24.0}],"3":[{"_1":0.0,"_2":2.0},{"_1":18.0,"_2":24.0}],"4":[{"_1":0.0,"_2":2.0},{"_1":18.0,"_2":24.0}],"5":[{"_1":0.0,"_2":2.0},{"_1":18.0,"_2":24.0}],"6":[{"_1":0.0,"_2":2.0},{"_1":18.0,"_2":24.0}]},"rating":4.4,"utc_offset":60}
{"id":"ChIJu2geuBtu5kcRVdOzozuBnIc","latitude":48.86298660000001,"longitude":2.352067700000001,"name":"Chez Mana","opening_hours":{"0":[{"_1":11.5,"_2":15.0},{"_1":18.5,"_2":23.0}],"1":[{"_1":11.5,"_2":15.0},{"_1":18.5,"_2":23.0}],"2":[{"_1":11.5,"_2":15.0},{"_1":18.5,"_2":23.0}],"3":[{"_1":11.5,"_2":15.0},{"_1":18.5,"_2":23.0}],"4":[{"_1":11.5,"_2":15.0},{"_1":18.5,"_2":23.0}],"5":[{"_1":11.5,"_2":15.0},{"_1":18.5,"_2":23.0}],"6":[{"_1":11.5,"_2":15.0},{"_1":18.5,"_2":23.0}]},"rating":5.0,"utc_offset":60}
{"id":"ChIJdaz56JBx5kcRODTkablC1Tc","latitude":48.8277118,"longitude":2.3493392,"name":"Les Cailloux","opening_hours":{"0":[{"_1":8.0,"_2":24.0},{"_1":0.0,"_2":1.0}],"1":[{"_1":0.0,"_2":1.0},{"_1":8.0,"_2":24.0}],"2":[{"_1":0.0,"_2":1.0},{"_1":8.0,"_2":24.0}],"3":[{"_1":0.0,"_2":1.0},{"_1":8.0,"_2":24.0}],"4":[{"_1":0.0,"_2":1.0},{"_1":8.0,"_2":24.0}],"5":[{"_1":0.0,"_2":1.0},{"_1":8.0,"_2":24.0}],"6":[{"_1":0.0,"_2":1.0},{"_1":8.0,"_2":24.0}]},"rating":3.7,"utc_offset":60}
{"id":"ChIJlV7R8JBx5kcRijuMQpdAYoM","latitude":48.8276987,"longitude":2.3501923,"name":"Taverne de la Butte","opening_hours":{"0":[{"_1":17.0,"_2":24.0},{"_1":0.0,"_2":2.0}],"1":[{"_1":17.0,"_2":24.0}],"2":[{"_1":0.0,"_2":2.0},{"_1":17.0,"_2":24.0}],"3":[{"_1":0.0,"_2":2.0},{"_1":17.0,"_2":24.0}],"4":[{"_1":0.0,"_2":2.0},{"_1":17.0,"_2":24.0}],"5":[{"_1":0.0,"_2":2.0},{"_1":17.0,"_2":24.0}],"6":[{"_1":0.0,"_2":2.0},{"_1":17.0,"_2":24.0}]},"rating":4.1,"utc_offset":60}
{"id":"ChIJfXsc5T1u5kcRJ6H0C_H82gs","latitude":48.8708338,"longitude":2.3448572,"name":"American M.e.a. Cie","opening_hours":{"0":[],"1":[],"2":[],"3":[],"4":[],"5":[],"6":[]},"rating":0.0,"utc_offset":60}
{"id":"ChIJETyKaxFu5kcRbIDsGUuxLoE","latitude":48.86997909999999,"longitude":2.3531998,"name":"Florida Food","opening_hours":{"0":[],"1":[],"2":[],"3":[],"4":[],"5":[],"6":[]},"rating":0.0,"utc_offset":60}
{"id":"ChIJ0_cM-hBu5kcREEAQ4IkCV84","latitude":48.868013,"longitude":2.353275,"name":"Le Cerceau","opening_hours":{"0":[],"1":[{"_1":7.0,"_2":24.0}],"2":[{"_1":0.0,"_2":2.0},{"_1":7.0,"_2":24.0}],"3":[{"_1":0.0,"_2":2.0},{"_1":7.0,"_2":24.0}],"4":[{"_1":0.0,"_2":2.0},{"_1":7.0,"_2":24.0}],"5":[{"_1":0.0,"_2":2.0},{"_1":7.0,"_2":24.0}],"6":[{"_1":0.0,"_2":2.0},{"_1":7.0,"_2":21.0}]},"rating":4.4,"utc_offset":60}
{"id":"ChIJh9CWKNlx5kcRawcwkz6Bffc","latitude":48.8536527,"longitude":2.3380009,"name":"Boomrang Le","opening_hours":{"0":[],"1":[],"2":[],"3":[],"4":[],"5":[],"6":[]},"rating":1.3,"utc_offset":60}
{"id":"ChIJhcseANfd4EcRZuolD55qh6s","latitude":49.443726,"longitude":1.0946646,"name":"Kids World","opening_hours":{"0":[],"1":[],"2":[],"3":[],"4":[],"5":[],"6":[]},"rating":0.0,"utc_offset":60}
{"id":"ChIJz4xexgBy5kcRigH2Zxcooyc","latitude":48.8541903,"longitude":2.3715362,"name":"Why Not Paris Grill","opening_hours":{"0":[{"_1":12.0,"_2":15.0},{"_1":18.0,"_2":24.0}],"1":[{"_1":12.0,"_2":15.0},{"_1":18.0,"_2":24.0}],"2":[{"_1":12.0,"_2":15.0},{"_1":18.0,"_2":24.0}],"3":[{"_1":12.0,"_2":15.0},{"_1":18.0,"_2":24.0}],"4":[{"_1":12.0,"_2":15.0},{"_1":18.0,"_2":24.0}],"5":[{"_1":12.0,"_2":15.0},{"_1":18.0,"_2":24.0}],"6":[{"_1":12.0,"_2":15.0},{"_1":18.0,"_2":24.0}]},"rating":4.0,"utc_offset":60}
{"id":"ChIJwQs6InZu5kcRis0xprkha7E","latitude":48.8822859,"longitude":2.368707,"name":"Soh B&K","opening_hours":{"0":[],"1":[{"_1":12.0,"_2":21.5}],"2":[{"_1":12.0,"_2":21.5}],"3":[{"_1":12.0,"_2":21.5}],"4":[{"_1":12.0,"_2":21.5}],"5":[{"_1":12.0,"_2":21.5}],"6":[{"_1":12.0,"_2":21.5}]},"rating":0.0,"utc_offset":60}
{"id":"ChIJY3-k1hlu5kcRE6yS3VYFXv0","latitude":48.8659248,"longitude":2.3484712,"name":"À La Main Le Comptoir","opening_hours":{"0":[],"1":[],"2":[{"_1":18.0,"_2":24.0}],"3":[{"_1":18.0,"_2":24.0}],"4":[{"_1":18.0,"_2":24.0}],"5":[{"_1":18.0,"_2":24.0}],"6":[{"_1":18.0,"_2":24.0}]},"rating":4.3,"utc_offset":60}
{"id":"ChIJnxcg9zZu5kcRBnyYcJgiUR8","latitude":48.8738759,"longitude":2.3309965,"name":"Cafe Des Sports","opening_hours":{"0":[],"1":[],"2":[],"3":[],"4":[],"5":[],"6":[]},"rating":0.0,"utc_offset":60}
{"id":"ChIJY-1XtRNu5kcR6cJga57p0dg","latitude":48.87237719999999,"longitude":2.354262799999999,"name":"Urfa Durum","opening_hours":{"0":[],"1":[{"_1":12.0,"_2":24.0}],"2":[{"_1":12.0,"_2":24.0}],"3":[{"_1":12.0,"_2":24.0}],"4":[{"_1":12.0,"_2":24.0}],"5":[{"_1":12.0,"_2":24.0}],"6":[{"_1":12.0,"_2":24.0}]},"rating":4.7,"utc_offset":60}
{"id":"ChIJy02IXa5v5kcR36278LO_G0Y","latitude":48.88907639999999,"longitude":2.3176357,"name":"Aname","opening_hours":{"0":[{"_1":19.5,"_2":23.0}],"1":[{"_1":12.0,"_2":14.75},{"_1":19.5,"_2":22.5}],"2":[{"_1":12.0,"_2":14.75},{"_1":19.5,"_2":22.5}],"3":[{"_1":12.0,"_2":14.75},{"_1":19.5,"_2":22.5}],"4":[{"_1":12.0,"_2":14.75},{"_1":19.5,"_2":22.5}],"5":[{"_1":12.0,"_2":14.75},{"_1":19.5,"_2":23.0}],"6":[{"_1":12.0,"_2":14.75},{"_1":19.5,"_2":23.0}]},"rating":3.7,"utc_offset":60}
{"id":"ChIJg-LMvxdu5kcRpC_BaVFtU3k","latitude":48.8675514,"longitude":2.3469909,"name":"Sarl E.l.c.","opening_hours":{"0":[],"1":[],"2":[],"3":[],"4":[],"5":[],"6":[]},"rating":0.0,"utc_offset":60}
{"id":"ChIJocC1Y3ly5kcRpS1rolOXlZM","latitude":48.85035579999999,"longitude":2.4038138,"name":"La Parisienne","opening_hours":{"0":[{"_1":19.0,"_2":24.0},{"_1":0.0,"_2":2.0}],"1":[{"_1":0.0,"_2":2.0},{"_1":19.0,"_2":24.0}],"2":[{"_1":0.0,"_2":2.0},{"_1":19.0,"_2":24.0}],"3":[{"_1":0.0,"_2":2.0},{"_1":19.0,"_2":24.0}],"4":[{"_1":0.0,"_2":2.0},{"_1":19.0,"_2":24.0}],"5":[{"_1":0.0,"_2":2.0},{"_1":19.0,"_2":24.0}],"6":[{"_1":0.0,"_2":2.0},{"_1":19.0,"_2":24.0}]},"rating":3.0,"utc_offset":60}
{"id":"ChIJS3YYixNu5kcRZyA1Ya1Xn9c","latitude":48.8724872,"longitude":2.3515337,"name":"Jésusparadis","opening_hours":{"0":[{"_1":0.0,"_2":1.5}],"1":[{"_1":12.0,"_2":15.5}],"2":[{"_1":12.0,"_2":15.5},{"_1":18.5,"_2":24.0}],"3":[{"_1":0.0,"_2":1.5},{"_1":12.0,"_2":15.5},{"_1":18.5,"_2":24.0}],"4":[{"_1":0.0,"_2":1.5},{"_1":12.0,"_2":15.5},{"_1":18.5,"_2":24.0}],"5":[{"_1":0.0,"_2":1.5},{"_1":12.0,"_2":15.5},{"_1":18.5,"_2":24.0}],"6":[{"_1":0.0,"_2":1.5},{"_1":18.5,"_2":24.0}]},"rating":4.0,"utc_offset":60}
{"id":"ChIJn2PXeBpu5kcRsm9NMuXXXQI","latitude":48.86597159999999,"longitude":2.3533038,"name":"Ho Minh","opening_hours":{"0":[],"1":[],"2":[],"3":[],"4":[],"5":[],"6":[]},"rating":0.0,"utc_offset":60}
{"id":"ChIJ614ryQBy5kcR3hySGs6_1e0","latitude":48.85416619999999,"longitude":2.3719468,"name":"Sarl Disha","opening_hours":{"0":[],"1":[],"2":[],"3":[],"4":[],"5":[],"6":[]},"rating":0.0,"utc_offset":60}
{"id":"ChIJIcuh-hlu5kcRqTbXiBI2CCE","latitude":48.86551859999999,"longitude":2.3504298,"name":"Ma Cave Fleury","opening_hours":{"0":[],"1":[{"_1":17.0,"_2":21.0}],"2":[{"_1":11.0,"_2":13.0},{"_1":17.0,"_2":22.0}],"3":[{"_1":11.0,"_2":13.0},{"_1":17.0,"_2":22.0}],"4":[{"_1":11.0,"_2":13.0},{"_1":17.0,"_2":22.0}],"5":[{"_1":11.0,"_2":13.0},{"_1":17.0,"_2":22.0}],"6":[{"_1":12.0,"_2":21.0}]},"rating":4.5,"utc_offset":60}
{"id":"ChIJ3zaGRtlx5kcRfSCO7Wt9U-o","latitude":48.85365090000001,"longitude":2.3379973,"name":"Glozaria","opening_hours":{"0":[{"_1":12.0,"_2":23.0}],"1":[],"2":[{"_1":12.5,"_2":23.0}],"3":[{"_1":12.0,"_2":23.0}],"4":[{"_1":12.0,"_2":23.0}],"5":[{"_1":12.0,"_2":23.0}],"6":[{"_1":12.0,"_2":23.0}]},"rating":3.9,"utc_offset":60}
{"id":"ChIJGa1T4RFu5kcRKOUy9OJRE-Y","latitude":48.870127,"longitude":2.3564414,"name":"Osè African Cuisine","opening_hours":{"0":[{"_1":18.5,"_2":22.5}],"1":[{"_1":12.0,"_2":14.5},{"_1":18.5,"_2":22.5}],"2":[{"_1":12.0,"_2":14.5},{"_1":18.5,"_2":22.5}],"3":[{"_1":12.0,"_2":14.5},{"_1":18.5,"_2":22.5}],"4":[{"_1":12.0,"_2":14.5},{"_1":18.5,"_2":22.5}],"5":[{"_1":12.0,"_2":14.5},{"_1":18.5,"_2":22.5}],"6":[{"_1":12.0,"_2":23.0}]},"rating":4.4,"utc_offset":60}
{"id":"ChIJ8SwWQ1tt5kcRveSOC2JhxcY","latitude":48.8632418,"longitude":2.441606800000001,"name":"La Maison du Phénix","opening_hours":{"0":[],"1":[],"2":[],"3":[],"4":[],"5":[],"6":[]},"rating":1.5,"utc_offset":60}
{"id":"ChIJ7yyOx_5C5kcR6j0nPtsCDUg","latitude":49.04128,"longitude":2.340291999999999,"name":"LA CROISSANTERIE MOISSELLES","opening_hours":{"0":[],"1":[],"2":[],"3":[],"4":[],"5":[],"6":[]},"rating":3.0,"utc_offset":60}
{"id":"ChIJy1CYad1t5kcRujzjlMNJ-tA","latitude":48.87659109999999,"longitude":2.378371399999999,"name":"Thalassa","opening_hours":{"0":[{"_1":12.0,"_2":14.5}],"1":[{"_1":17.0,"_2":22.5}],"2":[{"_1":12.0,"_2":14.5},{"_1":17.0,"_2":22.5}],"3":[{"_1":12.0,"_2":14.5},{"_1":17.0,"_2":22.5}],"4":[{"_1":12.0,"_2":14.5},{"_1":17.0,"_2":22.5}],"5":[{"_1":12.0,"_2":14.5},{"_1":17.0,"_2":22.5}],"6":[{"_1":12.0,"_2":14.5},{"_1":17.0,"_2":22.5}]},"rating":4.8,"utc_offset":60}
{"id":"ChIJDfLc70xu5kcR2J1RY4BGuZ0","latitude":48.8835637,"longitude":2.326301299999999,"name":"Paradis Batignolles","opening_hours":{"0":[],"1":[],"2":[],"3":[],"4":[],"5":[],"6":[]},"rating":0.0,"utc_offset":60}
{"id":"ChIJZRgXIeht5kcRzMB45Y0KjWw","latitude":48.8754064,"longitude":2.3814554,"name":"La Brick","opening_hours":{"0":[{"_1":12.0,"_2":23.0}],"1":[],"2":[{"_1":12.0,"_2":23.0}],"3":[{"_1":12.0,"_2":23.0}],"4":[{"_1":12.0,"_2":23.0}],"5":[{"_1":12.0,"_2":23.0}],"6":[{"_1":12.0,"_2":23.0}]},"rating":3.9,"utc_offset":60}
{"id":"ChIJcRjRXA9u5kcRzbTrhEXDVRU","latitude":48.866418,"longitude":2.360937,"name":"Sushi Yaki","opening_hours":{"0":[{"_1":18.0,"_2":23.0}],"1":[{"_1":12.0,"_2":15.0},{"_1":18.0,"_2":23.0}],"2":[{"_1":12.0,"_2":15.0},{"_1":18.0,"_2":23.0}],"3":[{"_1":12.0,"_2":15.0},{"_1":18.0,"_2":23.0}],"4":[{"_1":12.0,"_2":15.0},{"_1":18.0,"_2":23.0}],"5":[{"_1":12.0,"_2":15.0},{"_1":18.0,"_2":23.0}],"6":[{"_1":12.0,"_2":15.0},{"_1":18.0,"_2":23.0}]},"rating":3.8,"utc_offset":60}
{"id":"ChIJVQJnH8Ft5kcRI_CwOgXOhPI","latitude":48.87928369999999,"longitude":2.3884382,"name":"Gabay Levi (Sarl) Sarl","opening_hours":{"0":[],"1":[],"2":[],"3":[],"4":[],"5":[],"6":[]},"rating":0.0,"utc_offset":60}
{"id":"ChIJ01vBbhFu5kcRcydtcHjKQOc","latitude":48.8703319,"longitude":2.353115299999999,"name":"Le Rajpout","opening_hours":{"0":[],"1":[],"2":[],"3":[],"4":[],"5":[],"6":[]},"rating":1.0,"utc_offset":60}
{"id":"ChIJg8llyhNu5kcRuSyOIPtGXOg","latitude":48.8723718,"longitude":2.353868899999999,"name":"Hutch Hot-Dogs House","opening_hours":{"0":[{"_1":11.0,"_2":24.0},{"_1":0.0,"_2":1.0}],"1":[{"_1":0.0,"_2":1.0},{"_1":11.0,"_2":24.0}],"2":[{"_1":0.0,"_2":1.0},{"_1":11.0,"_2":24.0}],"3":[{"_1":0.0,"_2":1.0},{"_1":11.0,"_2":24.0}],"4":[{"_1":0.0,"_2":1.0},{"_1":11.0,"_2":24.0}],"5":[{"_1":0.0,"_2":1.0},{"_1":11.0,"_2":24.0}],"6":[{"_1":0.0,"_2":1.0},{"_1":11.0,"_2":24.0}]},"rating":3.5,"utc_offset":60}
{"id":"ChIJJ84mN65v5kcRORMjCMyrQQE","latitude":48.8881175,"longitude":2.316689,"name":"La Gioconda","opening_hours":{"0":[{"_1":12.0,"_2":14.5},{"_1":19.0,"_2":23.0}],"1":[{"_1":12.0,"_2":14.5},{"_1":19.0,"_2":23.0}],"2":[{"_1":12.0,"_2":14.5},{"_1":19.0,"_2":23.0}],"3":[{"_1":12.0,"_2":14.5},{"_1":19.0,"_2":23.0}],"4":[{"_1":12.0,"_2":14.5},{"_1":19.0,"_2":23.0}],"5":[{"_1":12.0,"_2":14.5},{"_1":19.0,"_2":23.0}],"6":[{"_1":12.0,"_2":14.5},{"_1":19.0,"_2":23.0}]},"rating":4.1,"utc_offset":60}
{"id":"ChIJ-0CU-TZu5kcRmlXTdx9Ylc8","latitude":48.8738885,"longitude":2.3310899,"name":"Café de l'Opéra","opening_hours":{"0":[],"1":[{"_1":7.0,"_2":21.0}],"2":[{"_1":7.0,"_2":21.0}],"3":[{"_1":7.0,"_2":21.0}],"4":[{"_1":7.0,"_2":21.0}],"5":[{"_1":7.0,"_2":21.0}],"6":[{"_1":7.0,"_2":21.0}]},"rating":2.9,"utc_offset":60}
{"id":"ChIJI2U6YXZu5kcRUJT7LT-nrPU","latitude":48.8819577,"longitude":2.3665207,"name":"Touytouyt - Restaurant Franco-Cambodgien","opening_hours":{"0":[],"1":[{"_1":12.0,"_2":14.5}],"2":[{"_1":12.0,"_2":14.5},{"_1":19.0,"_2":22.5}],"3":[{"_1":12.0,"_2":14.5},{"_1":19.0,"_2":22.5}],"4":[{"_1":12.0,"_2":14.5},{"_1":19.0,"_2":22.5}],"5":[{"_1":12.0,"_2":14.5},{"_1":19.0,"_2":22.5}],"6":[{"_1":12.0,"_2":14.5},{"_1":19.0,"_2":22.5}]},"rating":4.8,"utc_offset":60}
{"id":"ChIJo_gDfA5u5kcRbb7--_G78So","latitude":48.8706621,"longitude":2.3594171,"name":"Le Petit Château d'Eau","opening_hours":{"0":[{"_1":0.0,"_2":2.0}],"1":[{"_1":8.0,"_2":24.0}],"2":[{"_1":8.0,"_2":24.0}],"3":[{"_1":8.0,"_2":24.0}],"4":[{"_1":8.0,"_2":24.0}],"5":[{"_1":8.0,"_2":24.0}],"6":[{"_1":0.0,"_2":2.0},{"_1":9.0,"_2":24.0}]},"rating":4.0,"utc_offset":60}
{"id":"ChIJlcpd3Atu5kcRa22_Ew1CByo","latitude":48.87140230000001,"longitude":2.364117999999999,"name":"Le Repère","opening_hours":{"0":[],"1":[],"2":[],"3":[],"4":[],"5":[],"6":[]},"rating":4.0,"utc_offset":60}
{"id":"ChIJOxssZQ9u5kcRHqDB1wVDF6g","latitude":48.8664525,"longitude":2.3599632,"name":"La Favorite","opening_hours":{"0":[{"_1":7.0,"_2":24.0},{"_1":0.0,"_2":2.0}],"1":[{"_1":0.0,"_2":2.0},{"_1":7.0,"_2":24.0}],"2":[{"_1":0.0,"_2":2.0},{"_1":7.0,"_2":24.0}],"3":[{"_1":0.0,"_2":2.0},{"_1":7.0,"_2":24.0}],"4":[{"_1":0.0,"_2":2.0},{"_1":7.0,"_2":24.0}],"5":[{"_1":0.0,"_2":2.0},{"_1":7.0,"_2":24.0}],"6":[{"_1":0.0,"_2":2.0},{"_1":7.0,"_2":24.0}]},"rating":3.6,"utc_offset":60}
{"id":"ChIJ10w-zwBy5kcRPScM4iB-Xio","latitude":48.8540232,"longitude":2.3717803,"name":"Les Visiteurs","opening_hours":{"0":[],"1":[],"2":[],"3":[],"4":[],"5":[],"6":[]},"rating":0.0,"utc_offset":60}
{"id":"ChIJc0o59jlu5kcRozzScUSGnp8","latitude":48.8714787,"longitude":2.3356773,"name":"レオン ド ブリュッセル (オペラ店)ムール貝","opening_hours":{"0":[],"1":[],"2":[],"3":[],"4":[],"5":[],"6":[]},"rating":4.0,"utc_offset":60}
{"id":"ChIJgX3s2MNt5kcRUUb9_RTNdUU","latitude":48.8788875,"longitude":2.385623,"name":"Osteria Sicilia","opening_hours":{"0":[],"1":[],"2":[{"_1":12.0,"_2":14.0},{"_1":19.0,"_2":22.0}],"3":[{"_1":12.0,"_2":14.0},{"_1":19.0,"_2":22.0}],"4":[{"_1":12.0,"_2":14.0},{"_1":19.0,"_2":22.0}],"5":[{"_1":12.0,"_2":14.0},{"_1":19.0,"_2":22.0}],"6":[{"_1":12.0,"_2":14.0},{"_1":19.0,"_2":22.0}]},"rating":0.0,"utc_offset":60}
{"id":"ChIJxaCxpBRu5kcRQ9-jT_pb_YE","latitude":48.8753608,"longitude":2.3510264,"name":"Le Fantôme","opening_hours":{"0":[{"_1":0.0,"_2":2.0}],"1":[],"2":[{"_1":11.0,"_2":24.0}],"3":[{"_1":0.0,"_2":2.0},{"_1":11.0,"_2":24.0}],"4":[{"_1":0.0,"_2":2.0},{"_1":11.0,"_2":24.0}],"5":[{"_1":0.0,"_2":2.0},{"_1":11.0,"_2":24.0}],"6":[{"_1":0.0,"_2":2.0},{"_1":18.0,"_2":24.0}]},"rating":3.6,"utc_offset":60}
{"id":"ChIJ3aWuoQtu5kcRA3hEt0vbvpc","latitude":48.87315299999999,"longitude":2.3643653,"name":"Le Citizen Hôtel","opening_hours":{"0":[],"1":[],"2":[],"3":[],"4":[],"5":[],"6":[]},"rating":4.6,"utc_offset":60}
{"id":"ChIJE_HA8ahqHRURQcj0sIoDC04","latitude":32.3302717,"longitude":34.8529149,"name":"Pundak HaYam","opening_hours":{"0":[{"_1":9.0,"_2":22.0}],"1":[{"_1":9.0,"_2":22.0}],"2":[{"_1":9.0,"_2":22.0}],"3":[{"_1":9.0,"_2":22.0}],"4":[{"_1":9.0,"_2":22.0}],"5":[{"_1":9.0,"_2":16.5}],"6":[{"_1":9.0,"_2":22.0}]},"rating":3.8,"utc_offset":120}
{"id":"ChIJ4QEz-D1u5kcRZEGju1lu3IM","latitude":48.8707192,"longitude":2.3455899,"name":"Bar Para Li","opening_hours":{"0":[],"1":[],"2":[],"3":[],"4":[],"5":[],"6":[]},"rating":0.0,"utc_offset":60}
{"id":"ChIJF_0s3z1u5kcRM1BLj1zRKxE","latitude":48.8711479,"longitude":2.3438029,"name":"L'Entracte","opening_hours":{"0":[],"1":[],"2":[],"3":[],"4":[],"5":[],"6":[]},"rating":0.0,"utc_offset":60}
{"id":"ChIJyf7DShJu5kcRYGlZE2mXqIo","latitude":48.87240070000001,"longitude":2.3542902,"name":"Julhès","opening_hours":{"0":[{"_1":10.0,"_2":13.0}],"1":[{"_1":9.5,"_2":20.5}],"2":[{"_1":9.5,"_2":20.5}],"3":[{"_1":9.5,"_2":20.5}],"4":[{"_1":9.5,"_2":20.5}],"5":[{"_1":9.5,"_2":20.5}],"6":[{"_1":9.5,"_2":20.5}]},"rating":4.2,"utc_offset":60}
{"id":"ChIJV5oPThFu5kcRJPYlDJN6TfU","latitude":48.87050979999999,"longitude":2.3516535,"name":"Zheng","opening_hours":{"0":[],"1":[],"2":[],"3":[],"4":[],"5":[],"6":[]},"rating":0.0,"utc_offset":60}
{"id":"ChIJIR2Kpxdu5kcRXeYknf4wkxo","latitude":48.86800950000001,"longitude":2.3482408,"name":"LaTarte","opening_hours":{"0":[],"1":[{"_1":9.0,"_2":15.0}],"2":[{"_1":9.0,"_2":15.0}],"3":[{"_1":9.0,"_2":15.0}],"4":[{"_1":9.0,"_2":15.0}],"5":[{"_1":9.0,"_2":15.0}],"6":[]},"rating":4.3,"utc_offset":60}
{"id":"ChIJyYUZJuZt5kcRM_esWinHrfA","latitude":48.8725666,"longitude":2.3795194,"name":"Dong Fa","opening_hours":{"0":[],"1":[],"2":[],"3":[],"4":[],"5":[],"6":[]},"rating":5.0,"utc_offset":60}
{"id":"ChIJk_MiO01u5kcRBsAn9CQJrXc","latitude":48.8849983,"longitude":2.3252833,"name":"Agadipain","opening_hours":{"0":[],"1":[],"2":[],"3":[],"4":[],"5":[],"6":[]},"rating":3.0,"utc_offset":60}
{"id":"ChIJgVj0agpu5kcR8gV5Xvv6RMk","latitude":48.872172,"longitude":2.3669132,"name":"Blanchisserie Bichat","opening_hours":{"0":[],"1":[],"2":[],"3":[],"4":[],"5":[],"6":[]},"rating":3.0,"utc_offset":60}
{"id":"ChIJ___L5Qtu5kcRrYDBMW_-lHo","latitude":48.8714337,"longitude":2.3635773,"name":"La Cantine Du 10","opening_hours":{"0":[],"1":[],"2":[],"3":[],"4":[],"5":[],"6":[]},"rating":0.0,"utc_offset":60}
{"id":"ChIJF1-B_JBx5kcRbLtg91grL9w","latitude":48.8281659,"longitude":2.3500869,"name":"Butte aux Thai","opening_hours":{"0":[{"_1":19.0,"_2":22.5}],"1":[],"2":[{"_1":12.5,"_2":14.5},{"_1":19.0,"_2":22.75}],"3":[{"_1":12.5,"_2":14.5},{"_1":19.0,"_2":22.75}],"4":[{"_1":12.5,"_2":14.5},{"_1":19.0,"_2":22.75}],"5":[{"_1":12.0,"_2":14.5},{"_1":19.0,"_2":23.0}],"6":[{"_1":12.5,"_2":14.5},{"_1":19.0,"_2":22.75}]},"rating":4.6,"utc_offset":60}
{"id":"ChIJKynHxRFu5kcRLGk924OncJo","latitude":48.869265,"longitude":2.3559948,"name":"L'Appartement Saint-Martin","opening_hours":{"0":[{"_1":11.5,"_2":24.0},{"_1":0.0,"_2":2.0}],"1":[{"_1":9.5,"_2":24.0}],"2":[{"_1":9.5,"_2":24.0}],"3":[{"_1":9.5,"_2":24.0}],"4":[{"_1":0.0,"_2":2.0},{"_1":9.5,"_2":24.0}],"5":[{"_1":0.0,"_2":2.0},{"_1":9.5,"_2":24.0}],"6":[{"_1":0.0,"_2":2.0},{"_1":9.5,"_2":24.0}]},"rating":3.5,"utc_offset":60}
{"id":"ChIJSXcOqKhqHRURFo9Ot0UrwsY","latitude":32.3319862,"longitude":34.8510254,"name":"Marrakesh","opening_hours":{"0":[{"_1":12.0,"_2":23.0}],"1":[{"_1":12.0,"_2":23.0}],"2":[{"_1":12.0,"_2":23.0}],"3":[{"_1":12.0,"_2":23.0}],"4":[{"_1":12.0,"_2":23.0}],"5":[{"_1":12.0,"_2":16.5}],"6":[{"_1":19.0,"_2":23.0}]},"rating":4.0,"utc_offset":120}
{"id":"ChIJAQC8nxdu5kcR9w945q2qvYc","latitude":48.8673827,"longitude":2.348082100000001,"name":"Thaï & sushi","opening_hours":{"0":[{"_1":13.0,"_2":15.5},{"_1":19.0,"_2":22.0}],"1":[{"_1":11.5,"_2":15.5},{"_1":19.0,"_2":22.0}],"2":[{"_1":11.5,"_2":15.5},{"_1":19.0,"_2":22.0}],"3":[{"_1":11.5,"_2":15.5},{"_1":19.0,"_2":22.0}],"4":[{"_1":11.5,"_2":15.5},{"_1":19.0,"_2":22.0}],"5":[{"_1":11.5,"_2":15.5},{"_1":19.0,"_2":22.0}],"6":[{"_1":13.0,"_2":15.5},{"_1":19.0,"_2":22.0}]},"rating":0.0,"utc_offset":60}
{"id":"ChIJqc_f-F5C5kcRpJ6bZHOH1LI","latitude":49.0400309,"longitude":2.340864100000001,"name":"Le Tokyo","opening_hours":{"0":[],"1":[{"_1":12.0,"_2":14.75},{"_1":19.0,"_2":22.0}],"2":[{"_1":12.0,"_2":14.75},{"_1":19.0,"_2":22.0}],"3":[{"_1":12.0,"_2":14.75},{"_1":19.0,"_2":22.0}],"4":[{"_1":12.0,"_2":14.75},{"_1":19.0,"_2":22.0}],"5":[{"_1":12.0,"_2":14.75},{"_1":19.0,"_2":22.0}],"6":[{"_1":12.0,"_2":14.75},{"_1":19.0,"_2":22.0}]},"rating":3.0,"utc_offset":60}
{"id":"ChIJb2hJfwVu5kcRObqnEi31ND4","latitude":48.8657028,"longitude":2.3592274,"name":"La Crêperie Du Marais","opening_hours":{"0":[],"1":[],"2":[],"3":[],"4":[],"5":[],"6":[]},"rating":0.0,"utc_offset":60}
{"id":"ChIJje57iBRu5kcRrB0TY4Pe278","latitude":48.8738548,"longitude":2.350811,"name":"LA RÉCLAME","opening_hours":{"0":[],"1":[],"2":[{"_1":11.5,"_2":19.5}],"3":[{"_1":11.5,"_2":19.5}],"4":[{"_1":11.5,"_2":19.5}],"5":[{"_1":11.5,"_2":19.5}],"6":[{"_1":11.5,"_2":19.5}]},"rating":4.9,"utc_offset":60}
{"id":"ChIJcch4_Atu5kcRprD8xIA4LsU","latitude":48.8712616,"longitude":2.363077,"name":"Bar Carrouf Centre Commercial","opening_hours":{"0":[],"1":[],"2":[],"3":[],"4":[],"5":[],"6":[]},"rating":0.0,"utc_offset":60}
{"id":"ChIJLya87hpu5kcRTUlhywh-FI4","latitude":48.8645053,"longitude":2.3545867,"name":"Bob's Kitchen","opening_hours":{"0":[{"_1":8.0,"_2":16.0}],"1":[{"_1":8.0,"_2":15.0}],"2":[{"_1":8.0,"_2":15.0}],"3":[{"_1":8.0,"_2":15.0}],"4":[{"_1":8.0,"_2":15.0}],"5":[{"_1":8.0,"_2":15.0}],"6":[{"_1":8.0,"_2":16.0}]},"rating":4.4,"utc_offset":60}
{"id":"ChIJ33WDYhlu5kcRv3PSXxJ-RZ4","latitude":48.862498,"longitude":2.3500476,"name":"Shisha","opening_hours":{"0":[],"1":[],"2":[],"3":[],"4":[],"5":[],"6":[]},"rating":3.5,"utc_offset":60}
{"id":"ChIJTVqiSOZt5kcRM_OFtqmzF6c","latitude":48.8725592,"longitude":2.3781437,"name":"Thierry Meunier","opening_hours":{"0":[],"1":[],"2":[],"3":[],"4":[],"5":[],"6":[]},"rating":2.2,"utc_offset":60}
{"id":"ChIJj3lYxgtu5kcRxkM8WlsvE88","latitude":48.87161719999999,"longitude":2.364494,"name":"Cafe Chez Prune","opening_hours":{"0":[],"1":[],"2":[],"3":[],"4":[],"5":[],"6":[]},"rating":3.0,"utc_offset":60}
{"id":"ChIJ52xWE_1t5kcRjZMo9suaRl8","latitude":48.8641484,"longitude":2.3689476,"name":"Au King Délice","opening_hours":{"0":[],"1":[],"2":[],"3":[],"4":[],"5":[],"6":[]},"rating":3.0,"utc_offset":60}
{"id":"ChIJ9RYolxFu5kcROJPOo3W7HF8","latitude":48.870069,"longitude":2.354985,"name":"Le Globo","opening_hours":{"0":[{"_1":0.0,"_2":6.0}],"1":[],"2":[],"3":[],"4":[],"5":[{"_1":23.75,"_2":24.0}],"6":[{"_1":0.0,"_2":6.0},{"_1":23.75,"_2":24.0}]},"rating":2.8,"utc_offset":60}
{"id":"ChIJwS3QNltt5kcRF-RKsBudhM8","latitude":48.8638074,"longitude":2.4425076,"name":"Sandwicherie Le Prestige","opening_hours":{"0":[{"_1":9.0,"_2":24.0},{"_1":0.0,"_2":1.0}],"1":[{"_1":0.0,"_2":1.0},{"_1":9.0,"_2":24.0}],"2":[{"_1":0.0,"_2":1.0},{"_1":9.0,"_2":24.0}],"3":[{"_1":0.0,"_2":1.0},{"_1":9.0,"_2":24.0}],"4":[{"_1":0.0,"_2":1.0},{"_1":9.0,"_2":24.0}],"5":[{"_1":0.0,"_2":1.0},{"_1":9.0,"_2":24.0}],"6":[{"_1":0.0,"_2":1.0},{"_1":9.0,"_2":24.0}]},"rating":4.3,"utc_offset":60}
{"id":"ChIJbchV6ZBx5kcRbcp3dkbwFUg","latitude":48.8275832,"longitude":2.349423,"name":"L'Artisan","opening_hours":{"0":[{"_1":6.0,"_2":23.0}],"1":[],"2":[],"3":[{"_1":6.0,"_2":23.0}],"4":[{"_1":6.0,"_2":23.0}],"5":[{"_1":6.0,"_2":23.0}],"6":[{"_1":6.0,"_2":23.0}]},"rating":3.8,"utc_offset":60}
{"id":"ChIJMSlUhBlu5kcR5GMkrBZfU-U","latitude":48.8640017,"longitude":2.3503816,"name":"Sushi Bonheur","opening_hours":{"0":[],"1":[],"2":[],"3":[],"4":[],"5":[],"6":[]},"rating":0.0,"utc_offset":60}
{"id":"ChIJd1ypyABy5kcR-RcvyT-I3Ec","latitude":48.854169,"longitude":2.3717006,"name":"Mégalo Bar","opening_hours":{"0":[],"1":[],"2":[],"3":[],"4":[],"5":[],"6":[]},"rating":4.0,"utc_offset":60}
{"id":"ChIJ3fKQTxBu5kcRnFe6gwJUPe0","latitude":48.8680325,"longitude":2.3548137,"name":"Chez Beto","opening_hours":{"0":[],"1":[],"2":[],"3":[],"4":[],"5":[],"6":[]},"rating":0.0,"utc_offset":60}
{"id":"ChIJGbFqiC9u5kcR0nLp3lnjiAc","latitude":48.864718,"longitude":2.333787,"name":"Sanukiya","opening_hours":{"0":[{"_1":11.5,"_2":22.0}],"1":[{"_1":11.5,"_2":22.0}],"2":[{"_1":11.5,"_2":22.0}],"3":[{"_1":11.5,"_2":22.0}],"4":[{"_1":11.5,"_2":22.0}],"5":[{"_1":11.5,"_2":22.0}],"6":[{"_1":11.5,"_2":22.0}]},"rating":4.5,"utc_offset":60}
{"id":"ChIJS_hANgVu5kcRZKjdafwk-Fg","latitude":48.8647245,"longitude":2.3567826,"name":"Song Heng Restaurant","opening_hours":{"0":[],"1":[{"_1":11.0,"_2":16.0}],"2":[{"_1":11.0,"_2":16.0}],"3":[{"_1":11.0,"_2":16.0}],"4":[{"_1":11.0,"_2":16.0}],"5":[{"_1":11.0,"_2":16.0}],"6":[{"_1":11.0,"_2":16.0}]},"rating":4.5,"utc_offset":60}
{"id":"ChIJ758YBhlu5kcRR_ED10akqVM","latitude":48.86345900000001,"longitude":2.3485423,"name":"ROOMIES","opening_hours":{"0":[{"_1":12.0,"_2":16.0}],"1":[{"_1":12.0,"_2":14.5},{"_1":19.5,"_2":22.5}],"2":[{"_1":12.0,"_2":14.5},{"_1":19.5,"_2":22.5}],"3":[{"_1":12.0,"_2":14.5},{"_1":19.5,"_2":22.5}],"4":[{"_1":12.0,"_2":14.5},{"_1":19.5,"_2":22.5}],"5":[{"_1":12.0,"_2":14.5},{"_1":19.5,"_2":22.5}],"6":[{"_1":12.0,"_2":22.5}]},"rating":4.6,"utc_offset":60}
{"id":"ChIJ_R5IrTxy5kcRE7FDFiStdKg","latitude":48.8311178,"longitude":2.3751635,"name":"Sushi Story","opening_hours":{"0":[{"_1":19.0,"_2":23.0}],"1":[{"_1":12.0,"_2":15.0},{"_1":19.0,"_2":23.0}],"2":[{"_1":12.0,"_2":15.0},{"_1":19.0,"_2":23.0}],"3":[{"_1":12.0,"_2":15.0},{"_1":19.0,"_2":23.0}],"4":[{"_1":12.0,"_2":15.0},{"_1":19.0,"_2":23.0}],"5":[{"_1":12.0,"_2":15.0},{"_1":19.0,"_2":23.0}],"6":[{"_1":12.0,"_2":15.0},{"_1":19.0,"_2":23.0}]},"rating":3.3,"utc_offset":60}
{"id":"ChIJrRVPyhpu5kcR-f4ErjAuxHs","latitude":48.8647398,"longitude":2.3561658,"name":"Piu Cai Xiaolai","opening_hours":{"0":[],"1":[],"2":[],"3":[],"4":[],"5":[],"6":[]},"rating":4.0,"utc_offset":60}
{"id":"ChIJI8Aj2cNt5kcRmAdZ3uSfYls","latitude":48.8789257,"longitude":2.3855222,"name":"Take Took","opening_hours":{"0":[{"_1":11.5,"_2":15.0},{"_1":18.0,"_2":23.0}],"1":[{"_1":11.5,"_2":15.0},{"_1":18.0,"_2":22.5}],"2":[{"_1":11.5,"_2":15.0},{"_1":18.0,"_2":22.5}],"3":[{"_1":11.5,"_2":15.0},{"_1":18.0,"_2":22.5}],"4":[{"_1":11.5,"_2":15.0},{"_1":18.0,"_2":22.5}],"5":[{"_1":11.5,"_2":15.0}],"6":[{"_1":19.5,"_2":23.0}]},"rating":4.3,"utc_offset":60}
{"id":"ChIJT78RxHVu5kcRZoDCLEKfs3M","latitude":48.881275,"longitude":2.368342,"name":"Point Éphémère","opening_hours":{"0":[{"_1":12.5,"_2":22.0},{"_1":0.0,"_2":2.0}],"1":[{"_1":12.5,"_2":24.0}],"2":[{"_1":0.0,"_2":2.0},{"_1":12.5,"_2":24.0}],"3":[{"_1":0.0,"_2":2.0},{"_1":12.5,"_2":24.0}],"4":[{"_1":0.0,"_2":2.0},{"_1":12.5,"_2":24.0}],"5":[{"_1":0.0,"_2":2.0},{"_1":12.5,"_2":24.0}],"6":[{"_1":0.0,"_2":2.0},{"_1":12.5,"_2":24.0}]},"rating":4.0,"utc_offset":60}
{"id":"ChIJvZd1SxFu5kcRBjMtqzx-AMY","latitude":48.87018,"longitude":2.351406,"name":"AVLI","opening_hours":{"0":[{"_1":12.0,"_2":16.0}],"1":[{"_1":12.0,"_2":15.5},{"_1":19.0,"_2":23.5}],"2":[{"_1":12.0,"_2":15.5},{"_1":19.0,"_2":24.0}],"3":[{"_1":12.0,"_2":15.5},{"_1":19.0,"_2":23.5}],"4":[{"_1":12.0,"_2":15.5},{"_1":19.0,"_2":23.5}],"5":[{"_1":12.0,"_2":15.5},{"_1":19.0,"_2":24.0}],"6":[{"_1":12.0,"_2":15.5},{"_1":19.0,"_2":24.0}]},"rating":4.7,"utc_offset":60}
{"id":"ChIJnXSqHhpu5kcRld-qb_DmD_4","latitude":48.8652938,"longitude":2.3511343,"name":"L'Impact","opening_hours":{"0":[{"_1":15.0,"_2":24.0},{"_1":0.0,"_2":6.0}],"1":[{"_1":0.0,"_2":2.0},{"_1":19.0,"_2":24.0}],"2":[{"_1":0.0,"_2":2.0},{"_1":19.0,"_2":24.0}],"3":[{"_1":0.0,"_2":2.0},{"_1":19.0,"_2":24.0}],"4":[{"_1":0.0,"_2":2.0},{"_1":19.0,"_2":24.0}],"5":[{"_1":0.0,"_2":2.0},{"_1":22.0,"_2":24.0}],"6":[{"_1":0.0,"_2":6.0},{"_1":22.0,"_2":24.0}]},"rating":3.1,"utc_offset":60}
{"id":"ChIJ_fBHmZly5kcRySCzLU0oB84","latitude":48.846607,"longitude":2.4291459,"name":"Le Coste Bleu","opening_hours":{"0":[],"1":[],"2":[],"3":[],"4":[],"5":[],"6":[]},"rating":0.0,"utc_offset":60}
{"id":"ChIJ-dSLUAVu5kcRKxLJKe_zLvA","latitude":48.8655741,"longitude":2.3571199,"name":"Les Quatre Saisons","opening_hours":{"0":[],"1":[],"2":[],"3":[],"4":[],"5":[],"6":[]},"rating":0.0,"utc_offset":60}
{"id":"ChIJLyfpxTZu5kcRCsrIf9KuXfI","latitude":48.8721016,"longitude":2.3304692,"name":"Boutique Nespresso Paris Opéra","opening_hours":{"0":[],"1":[{"_1":10.0,"_2":19.0}],"2":[{"_1":10.0,"_2":19.0}],"3":[{"_1":10.0,"_2":19.0}],"4":[{"_1":10.0,"_2":20.0}],"5":[{"_1":10.0,"_2":19.0}],"6":[{"_1":10.0,"_2":19.0}]},"rating":4.1,"utc_offset":60}
{"id":"ChIJYSg8P15C5kcRzs_U62n8WAo","latitude":49.0389926,"longitude":2.3409569,"name":"BCHEF","opening_hours":{"0":[{"_1":10.0,"_2":19.0}],"1":[{"_1":10.0,"_2":19.0}],"2":[{"_1":10.0,"_2":19.0}],"3":[{"_1":10.0,"_2":19.0}],"4":[{"_1":10.0,"_2":19.0}],"5":[{"_1":10.0,"_2":19.0}],"6":[{"_1":10.0,"_2":19.0}]},"rating":3.3,"utc_offset":60}
{"id":"ChIJYYBcCz5u5kcRNpZ-ZV7k9bc","latitude":48.8716115,"longitude":2.344400899999999,"name":"Christeph","opening_hours":{"0":[],"1":[],"2":[],"3":[],"4":[],"5":[],"6":[]},"rating":0.0,"utc_offset":60}
{"id":"ChIJU5XcSAVu5kcR3OvLfOnBf-I","latitude":48.865049,"longitude":2.356945,"name":"Le Temple Celeste","opening_hours":{"0":[],"1":[],"2":[],"3":[],"4":[],"5":[],"6":[]},"rating":4.4,"utc_offset":60}
{"id":"ChIJgQfCkxNu5kcRcQi5NxUc9C8","latitude":48.8726037,"longitude":2.3525127,"name":"Les P'tites Poules","opening_hours":{"0":[],"1":[],"2":[],"3":[],"4":[],"5":[],"6":[]},"rating":4.3,"utc_offset":60}
{"id":"ChIJ63_5-ZBx5kcRB4qBeL3cXvk","latitude":48.8278386,"longitude":2.3502212,"name":"Les Tanneurs de la Butte","opening_hours":{"0":[{"_1":8.0,"_2":12.0}],"1":[{"_1":8.0,"_2":12.0}],"2":[{"_1":8.0,"_2":12.0}],"3":[{"_1":8.0,"_2":12.0}],"4":[{"_1":8.0,"_2":12.0}],"5":[{"_1":8.0,"_2":12.0}],"6":[{"_1":8.0,"_2":12.0}]},"rating":3.6,"utc_offset":60}
{"id":"ChIJc5RH0Jty5kcRvKaBQNa1Gos","latitude":48.8475534,"longitude":2.4275848,"name":"Génération Sushi - Vincennes","opening_hours":{"0":[],"1":[],"2":[],"3":[],"4":[],"5":[],"6":[]},"rating":0.0,"utc_offset":60}
{"id":"ChIJebyrpdfd4EcRVqZO3bHuYcc","latitude":49.44358489999999,"longitude":1.0939029,"name":"le socrate","opening_hours":{"0":[],"1":[{"_1":7.5,"_2":20.0}],"2":[{"_1":7.5,"_2":20.0}],"3":[{"_1":7.5,"_2":20.0}],"4":[{"_1":7.5,"_2":20.0}],"5":[{"_1":7.5,"_2":20.0}],"6":[{"_1":7.5,"_2":20.0}]},"rating":3.2,"utc_offset":60}
{"id":"ChIJ283JpRdu5kcR0chYrgjudgI","latitude":48.86797439999999,"longitude":2.3478599,"name":"La Cantine des Mama's","opening_hours":{"0":[{"_1":11.5,"_2":15.0},{"_1":19.0,"_2":23.0}],"1":[{"_1":11.5,"_2":15.0},{"_1":19.0,"_2":23.0}],"2":[{"_1":11.5,"_2":15.0},{"_1":19.0,"_2":23.0}],"3":[{"_1":11.5,"_2":15.0},{"_1":19.0,"_2":23.0}],"4":[{"_1":11.5,"_2":15.0},{"_1":19.0,"_2":23.0}],"5":[{"_1":11.5,"_2":15.0},{"_1":19.0,"_2":23.0}],"6":[{"_1":19.0,"_2":23.0}]},"rating":4.5,"utc_offset":60}
{"id":"ChIJi8UjncJt5kcRSeMwbZobDBw","latitude":48.8757844,"longitude":2.3818555,"name":"BOTZARIS CAFE","opening_hours":{"0":[{"_1":7.0,"_2":24.0},{"_1":0.0,"_2":2.0}],"1":[{"_1":0.0,"_2":2.0},{"_1":7.0,"_2":24.0}],"2":[{"_1":0.0,"_2":2.0},{"_1":7.0,"_2":24.0}],"3":[{"_1":0.0,"_2":2.0},{"_1":7.0,"_2":24.0}],"4":[{"_1":0.0,"_2":2.0},{"_1":7.0,"_2":24.0}],"5":[{"_1":0.0,"_2":2.0},{"_1":7.0,"_2":24.0}],"6":[{"_1":0.0,"_2":2.0},{"_1":7.0,"_2":24.0}]},"rating":4.1,"utc_offset":60}
{"id":"ChIJMWWzWRFu5kcR6gWgD-YgUnY","latitude":48.87106,"longitude":2.3520198,"name":"La Mécanique des Fluides","opening_hours":{"0":[{"_1":17.0,"_2":24.0},{"_1":0.0,"_2":2.0}],"1":[{"_1":0.0,"_2":2.0},{"_1":17.0,"_2":24.0}],"2":[{"_1":0.0,"_2":2.0},{"_1":17.0,"_2":24.0}],"3":[{"_1":0.0,"_2":2.0},{"_1":17.0,"_2":24.0}],"4":[{"_1":0.0,"_2":2.0},{"_1":17.0,"_2":24.0}],"5":[{"_1":0.0,"_2":2.0},{"_1":17.0,"_2":24.0}],"6":[{"_1":0.0,"_2":2.0},{"_1":17.0,"_2":24.0}]},"rating":4.3,"utc_offset":60}
{"id":"ChIJ-5Isx9ht5kcRv0flTqjQnIY","latitude":48.8817343,"longitude":2.370580299999999,"name":"L'imprévu","opening_hours":{"0":[{"_1":0.0,"_2":2.0}],"1":[{"_1":6.0,"_2":24.0}],"2":[{"_1":0.0,"_2":2.0},{"_1":6.0,"_2":24.0}],"3":[{"_1":0.0,"_2":2.0},{"_1":6.0,"_2":24.0}],"4":[{"_1":0.0,"_2":2.0},{"_1":6.0,"_2":24.0}],"5":[{"_1":0.0,"_2":2.0},{"_1":6.0,"_2":24.0}],"6":[{"_1":0.0,"_2":2.0},{"_1":6.0,"_2":24.0}]},"rating":4.4,"utc_offset":60}
{"id":"ChIJr6xW1xlu5kcRBTKkMbO-wMw","latitude":48.8659149,"longitude":2.3487515,"name":"Le 23","opening_hours":{"0":[{"_1":0.0,"_2":2.0}],"1":[],"2":[{"_1":18.0,"_2":24.0}],"3":[{"_1":18.0,"_2":24.0}],"4":[{"_1":18.0,"_2":24.0}],"5":[{"_1":0.0,"_2":2.0},{"_1":18.0,"_2":24.0}],"6":[{"_1":0.0,"_2":2.0},{"_1":18.0,"_2":24.0}]},"rating":4.6,"utc_offset":60}
{"id":"ChIJiQxv_05u5kcRVgBpkRINVYw","latitude":48.8838498,"longitude":2.3270363,"name":"Quick","opening_hours":{"0":[{"_1":8.0,"_2":24.0},{"_1":0.0,"_2":1.5}],"1":[{"_1":0.0,"_2":1.0},{"_1":8.0,"_2":24.0}],"2":[{"_1":0.0,"_2":1.0},{"_1":8.0,"_2":24.0}],"3":[{"_1":0.0,"_2":1.0},{"_1":8.0,"_2":24.0}],"4":[{"_1":0.0,"_2":1.0},{"_1":8.0,"_2":24.0}],"5":[{"_1":0.0,"_2":1.0},{"_1":8.0,"_2":24.0}],"6":[{"_1":0.0,"_2":1.5},{"_1":8.0,"_2":24.0}]},"rating":2.5,"utc_offset":60}
{"id":"ChIJw2xgiC9u5kcRTolt7EYoGVQ","latitude":48.8646997,"longitude":2.333746399999999,"name":"さぬき屋","opening_hours":{"0":[],"1":[],"2":[],"3":[],"4":[],"5":[],"6":[]},"rating":4.5,"utc_offset":60}
{"id":"ChIJF35ZZw9u5kcRfvosd86qDLc","latitude":48.8663884,"longitude":2.3607865,"name":"B. Bell broche","opening_hours":{"0":[],"1":[{"_1":12.0,"_2":18.0}],"2":[{"_1":12.0,"_2":18.0}],"3":[{"_1":12.0,"_2":18.0}],"4":[{"_1":12.0,"_2":18.0}],"5":[{"_1":12.0,"_2":18.0}],"6":[{"_1":12.0,"_2":18.0}]},"rating":4.6,"utc_offset":60}
{"id":"ChIJU83rGE1u5kcRtgu_lG89Fuk","latitude":48.8847582,"longitude":2.3258054,"name":"La Passerelle","opening_hours":{"0":[],"1":[],"2":[],"3":[],"4":[],"5":[],"6":[]},"rating":5.0,"utc_offset":60}
{"id":"ChIJZ5cVNhJu5kcRrY5om-5nB0c","latitude":48.8723167,"longitude":2.3546594,"name":"Epicerie Julhès 17/20","opening_hours":{"0":[],"1":[],"2":[],"3":[],"4":[],"5":[],"6":[]},"rating":0.0,"utc_offset":60}
{"id":"ChIJk3AugCVu5kcR90UM1BzDWLo","latitude":48.8641707,"longitude":2.3338069,"name":"Dragon Palais Royal","opening_hours":{"0":[],"1":[],"2":[],"3":[],"4":[],"5":[],"6":[]},"rating":1.0,"utc_offset":60}
{"id":"ChIJSY43_hFu5kcRI8m1qNLL-94","latitude":48.87086289999999,"longitude":2.3568502,"name":"Chevalier Michèle","opening_hours":{"0":[],"1":[],"2":[],"3":[],"4":[],"5":[],"6":[]},"rating":0.0,"utc_offset":60}
{"id":"ChIJ45EKQt1t5kcRI07JqS6AhzM","latitude":48.87654149999999,"longitude":2.3784971,"name":"Soteris Mickael","opening_hours":{"0":[],"1":[],"2":[],"3":[],"4":[],"5":[],"6":[]},"rating":0.0,"utc_offset":60}
{"id":"ChIJW2Ovg-ht5kcRsDTuzLmgpc8","latitude":48.8727489,"longitude":2.3797365,"name":"Yahiaoui Fatiha","opening_hours":{"0":[{"_1":6.5,"_2":21.0}],"1":[],"2":[{"_1":6.5,"_2":21.0}],"3":[{"_1":6.5,"_2":21.0}],"4":[{"_1":6.5,"_2":21.0}],"5":[{"_1":6.5,"_2":21.0}],"6":[{"_1":6.5,"_2":21.0}]},"rating":3.5,"utc_offset":60}
{"id":"ChIJfdnlmhlu5kcR45jLZhnWHmM","latitude":48.8641825,"longitude":2.349728,"name":"Anthony","opening_hours":{"0":[],"1":[],"2":[],"3":[],"4":[],"5":[],"6":[]},"rating":0.0,"utc_offset":60}
{"id":"ChIJfVPskJly5kcRKTliKVtYs7Q","latitude":48.8461048,"longitude":2.4288356,"name":"Le Berlioz","opening_hours":{"0":[],"1":[],"2":[],"3":[],"4":[],"5":[],"6":[]},"rating":3.6,"utc_offset":60}
{"id":"ChIJR_70Khhu5kcRjTC-rMnLht4","latitude":48.8660195,"longitude":2.3478924,"name":"Madame Croque Monsieur","opening_hours":{"0":[{"_1":10.0,"_2":15.0}],"1":[{"_1":10.0,"_2":22.0}],"2":[{"_1":10.0,"_2":22.0}],"3":[{"_1":10.0,"_2":22.0}],"4":[{"_1":10.0,"_2":22.0}],"5":[{"_1":10.0,"_2":22.0}],"6":[{"_1":10.0,"_2":22.0}]},"rating":3.0,"utc_offset":60}
{"id":"ChIJJX_2Zg5u5kcR_GLdvrwwiGw","latitude":48.8699896,"longitude":2.3591383,"name":"La Dispensa","opening_hours":{"0":[],"1":[],"2":[{"_1":12.5,"_2":15.0},{"_1":19.0,"_2":22.5}],"3":[{"_1":12.5,"_2":15.0},{"_1":19.0,"_2":22.5}],"4":[{"_1":12.5,"_2":15.0},{"_1":19.0,"_2":22.5}],"5":[{"_1":12.5,"_2":15.0},{"_1":19.0,"_2":22.5}],"6":[{"_1":12.5,"_2":15.0},{"_1":19.0,"_2":22.5}]},"rating":4.7,"utc_offset":60}
{"id":"ChIJ98uHfXRy5kcR74NbqToESkc","latitude":48.850658,"longitude":2.3917959,"name":"La Crêperie","opening_hours":{"0":[],"1":[],"2":[],"3":[],"4":[],"5":[],"6":[]},"rating":0.0,"utc_offset":60}
{"id":"ChIJ__-Taw9u5kcRLoZng2N9zTE","latitude":48.8670111,"longitude":2.3605285,"name":"Two Coworking - Restaurant","opening_hours":{"0":[],"1":[{"_1":8.0,"_2":19.0}],"2":[{"_1":8.0,"_2":19.0}],"3":[{"_1":8.0,"_2":23.0}],"4":[{"_1":8.0,"_2":23.0}],"5":[{"_1":8.0,"_2":23.0}],"6":[{"_1":10.0,"_2":23.0}]},"rating":5.0,"utc_offset":60}
{"id":"ChIJF_DrCQtu5kcRg88oK6BS03Q","latitude":48.873503,"longitude":2.364797,"name":"Ten Belles","opening_hours":{"0":[{"_1":9.0,"_2":18.0}],"1":[{"_1":8.0,"_2":17.0}],"2":[{"_1":8.0,"_2":17.0}],"3":[{"_1":8.0,"_2":17.0}],"4":[{"_1":8.0,"_2":17.0}],"5":[{"_1":8.0,"_2":17.0}],"6":[{"_1":9.0,"_2":18.0}]},"rating":4.3,"utc_offset":60}
{"id":"ChIJQTGgKNlx5kcRoxWsu_G3VEw","latitude":48.8536445,"longitude":2.3378805,"name":"Zk","opening_hours":{"0":[],"1":[],"2":[],"3":[],"4":[],"5":[],"6":[]},"rating":3.0,"utc_offset":60}
{"id":"ChIJt_haJ9lx5kcRufT6jW468T4","latitude":48.853737,"longitude":2.337642,"name":"L'Atlas","opening_hours":{"0":[{"_1":7.0,"_2":24.0},{"_1":0.0,"_2":2.0}],"1":[{"_1":0.0,"_2":2.0},{"_1":7.0,"_2":24.0}],"2":[{"_1":0.0,"_2":2.0},{"_1":7.0,"_2":24.0}],"3":[{"_1":0.0,"_2":2.0},{"_1":7.0,"_2":24.0}],"4":[{"_1":0.0,"_2":2.0},{"_1":7.0,"_2":24.0}],"5":[{"_1":0.0,"_2":2.0},{"_1":7.0,"_2":24.0}],"6":[{"_1":0.0,"_2":2.0},{"_1":7.0,"_2":24.0}]},"rating":3.0,"utc_offset":60}
{"id":"ChIJfSTnshNu5kcRQyvp_iUCyYk","latitude":48.8728117,"longitude":2.3541589,"name":"Ngoun Heng","opening_hours":{"0":[],"1":[],"2":[],"3":[],"4":[],"5":[],"6":[]},"rating":5.0,"utc_offset":60}
{"id":"ChIJDac3ahFu5kcRTrL2hf-Cm9Q","latitude":48.87012310000001,"longitude":2.3527383,"name":"Art Kebab","opening_hours":{"0":[{"_1":11.0,"_2":24.0},{"_1":0.0,"_2":1.0}],"1":[{"_1":11.0,"_2":24.0}],"2":[{"_1":0.0,"_2":1.0},{"_1":11.0,"_2":24.0}],"3":[{"_1":0.0,"_2":1.0},{"_1":11.0,"_2":24.0}],"4":[{"_1":0.0,"_2":1.0},{"_1":11.0,"_2":24.0}],"5":[{"_1":0.0,"_2":1.0},{"_1":11.0,"_2":24.0}],"6":[{"_1":0.0,"_2":1.0},{"_1":11.0,"_2":24.0}]},"rating":3.9,"utc_offset":60}
{"id":"ChIJO87vOl9C5kcRmHuH3LsdedQ","latitude":49.039892,"longitude":2.341307,"name":"Coffea","opening_hours":{"0":[],"1":[{"_1":9.0,"_2":20.0}],"2":[{"_1":9.0,"_2":20.0}],"3":[{"_1":9.0,"_2":20.0}],"4":[{"_1":9.0,"_2":20.0}],"5":[{"_1":9.0,"_2":21.0}],"6":[{"_1":9.0,"_2":20.0}]},"rating":0.0,"utc_offset":60}
{"id":"ChIJMeUXCi9u5kcR1kJ-cbDL4TI","latitude":48.86453239999999,"longitude":2.3324534,"name":"El Tonel","opening_hours":{"0":[{"_1":16.0,"_2":24.0}],"1":[{"_1":11.0,"_2":24.0}],"2":[{"_1":0.0,"_2":2.0},{"_1":11.0,"_2":24.0}],"3":[{"_1":0.0,"_2":2.0},{"_1":11.0,"_2":24.0}],"4":[{"_1":0.0,"_2":2.0},{"_1":11.0,"_2":24.0}],"5":[{"_1":0.0,"_2":2.0},{"_1":11.0,"_2":24.0}],"6":[{"_1":0.0,"_2":2.0},{"_1":16.0,"_2":24.0}]},"rating":4.2,"utc_offset":60}
{"id":"ChIJ9fr3dxlu5kcRfPZONoLbfKA","latitude":48.86362459999999,"longitude":2.349986899999999,"name":"Gard Du Nord","opening_hours":{"0":[],"1":[],"2":[],"3":[],"4":[],"5":[],"6":[]},"rating":0.0,"utc_offset":60}
{"id":"ChIJIwDp4Q5u5kcReEJkb-lOKHo","latitude":48.8681071,"longitude":2.3603397,"name":"Ti' Cap","opening_hours":{"0":[{"_1":0.0,"_2":2.0}],"1":[{"_1":16.0,"_2":24.0}],"2":[{"_1":0.0,"_2":2.0},{"_1":16.0,"_2":24.0}],"3":[{"_1":0.0,"_2":2.0},{"_1":16.0,"_2":24.0}],"4":[{"_1":0.0,"_2":2.0},{"_1":16.0,"_2":24.0}],"5":[{"_1":0.0,"_2":2.0},{"_1":16.0,"_2":24.0}],"6":[{"_1":0.0,"_2":2.0},{"_1":16.0,"_2":24.0}]},"rating":4.4,"utc_offset":60}
{"id":"ChIJqdrEITpu5kcR6etYVcwCEow","latitude":48.871415,"longitude":2.335572,"name":"Le Paradis du Fruit","opening_hours":{"0":[{"_1":12.0,"_2":24.0},{"_1":0.0,"_2":1.0}],"1":[{"_1":0.0,"_2":1.0},{"_1":12.0,"_2":24.0}],"2":[{"_1":0.0,"_2":1.0},{"_1":12.0,"_2":24.0}],"3":[{"_1":0.0,"_2":1.0},{"_1":12.0,"_2":24.0}],"4":[{"_1":0.0,"_2":1.0},{"_1":12.0,"_2":24.0}],"5":[{"_1":0.0,"_2":1.0},{"_1":12.0,"_2":24.0}],"6":[{"_1":0.0,"_2":1.0},{"_1":12.0,"_2":24.0}]},"rating":3.6,"utc_offset":60}
{"id":"ChIJl-VN8JBx5kcRRbjy90XGN7w","latitude":48.8276645,"longitude":2.3499741,"name":"Chez Michel","opening_hours":{"0":[{"_1":16.0,"_2":24.0},{"_1":0.0,"_2":2.0}],"1":[{"_1":0.0,"_2":2.0},{"_1":16.0,"_2":24.0}],"2":[{"_1":0.0,"_2":2.0},{"_1":16.0,"_2":24.0}],"3":[{"_1":0.0,"_2":2.0},{"_1":16.0,"_2":24.0}],"4":[{"_1":0.0,"_2":2.0},{"_1":16.0,"_2":24.0}],"5":[{"_1":0.0,"_2":2.0},{"_1":16.0,"_2":24.0}],"6":[{"_1":0.0,"_2":2.0},{"_1":16.0,"_2":24.0}]},"rating":4.1,"utc_offset":60}
{"id":"ChIJAQCci5ly5kcRl1Tvf2lRPcE","latitude":48.84586319999999,"longitude":2.4282378,"name":"Boulangerie et Pâtisserie Lohezic","opening_hours":{"0":[],"1":[{"_1":6.5,"_2":20.0}],"2":[{"_1":6.5,"_2":20.0}],"3":[{"_1":6.5,"_2":20.0}],"4":[{"_1":6.5,"_2":20.0}],"5":[{"_1":6.5,"_2":20.0}],"6":[{"_1":7.0,"_2":16.0}]},"rating":0.0,"utc_offset":60}
{"id":"ChIJRb8x6zZu5kcROFmVh50cBQE","latitude":48.8730761,"longitude":2.3304175,"name":"Maison de la truffe","opening_hours":{"0":[],"1":[],"2":[],"3":[],"4":[],"5":[],"6":[]},"rating":0.0,"utc_offset":60}
{"id":"ChIJyyOYtBNu5kcRiAW-Vb0uEhI","latitude":48.87267,"longitude":2.3541597,"name":"L'Horloge","opening_hours":{"0":[],"1":[],"2":[],"3":[],"4":[],"5":[],"6":[]},"rating":0.0,"utc_offset":60}
{"id":"ChIJ7dOnTgVu5kcRCpwSUgDiv68","latitude":48.86514129999999,"longitude":2.356802199999999,"name":"La Cave à Jiu","opening_hours":{"0":[],"1":[],"2":[],"3":[],"4":[],"5":[],"6":[]},"rating":5.0,"utc_offset":60}
{"id":"ChIJVdVj2hFu5kcRNdzxTV5JI2o","latitude":48.8692618,"longitude":2.3562668,"name":"Rori Sarl","opening_hours":{"0":[],"1":[],"2":[],"3":[],"4":[],"5":[],"6":[]},"rating":0.0,"utc_offset":60}
{"id":"ChIJt5-cPf1t5kcRam5BVr5baMM","latitude":48.8646389,"longitude":2.3695845,"name":"L'embuscade","opening_hours":{"0":[{"_1":8.0,"_2":24.0},{"_1":0.0,"_2":2.0}],"1":[{"_1":0.0,"_2":2.0},{"_1":8.0,"_2":24.0}],"2":[{"_1":0.0,"_2":2.0},{"_1":8.0,"_2":24.0}],"3":[{"_1":0.0,"_2":2.0},{"_1":8.0,"_2":24.0}],"4":[{"_1":0.0,"_2":2.0},{"_1":8.0,"_2":24.0}],"5":[{"_1":0.0,"_2":2.0},{"_1":8.0,"_2":24.0}],"6":[{"_1":0.0,"_2":2.0},{"_1":8.0,"_2":24.0}]},"rating":4.3,"utc_offset":60}
{"id":"ChIJ06Nta_1t5kcRd-VrTebXWi0","latitude":48.8642634,"longitude":2.3689314,"name":"Boulangerie Pâtisserie Gaïa","opening_hours":{"0":[],"1":[],"2":[],"3":[],"4":[],"5":[],"6":[]},"rating":4.5,"utc_offset":60}
{"id":"ChIJnXAD6Rpu5kcREwPY6vMRCw8","latitude":48.8643201,"longitude":2.354607300000001,"name":"Chez Li","opening_hours":{"0":[],"1":[],"2":[],"3":[],"4":[],"5":[],"6":[]},"rating":4.7,"utc_offset":60}
{"id":"ChIJDYpRKOZt5kcRAJ7u-C5YWpo","latitude":48.8726365,"longitude":2.3794399,"name":"Zhu","opening_hours":{"0":[],"1":[],"2":[],"3":[],"4":[],"5":[],"6":[]},"rating":0.0,"utc_offset":60}
{"id":"ChIJEcJkgeht5kcRyjJUHjLR19k","latitude":48.8730903,"longitude":2.3797273,"name":"Le Pacifique","opening_hours":{"0":[{"_1":11.0,"_2":24.0},{"_1":0.0,"_2":2.0}],"1":[{"_1":0.0,"_2":2.0},{"_1":11.0,"_2":24.0}],"2":[{"_1":0.0,"_2":2.0},{"_1":11.0,"_2":24.0}],"3":[{"_1":0.0,"_2":2.0},{"_1":11.0,"_2":24.0}],"4":[{"_1":0.0,"_2":2.0},{"_1":11.0,"_2":24.0}],"5":[{"_1":0.0,"_2":2.0},{"_1":11.0,"_2":24.0}],"6":[{"_1":0.0,"_2":2.0},{"_1":11.0,"_2":24.0}]},"rating":4.0,"utc_offset":60}
{"id":"ChIJF1uNNgVu5kcRJi3on_IHBZU","latitude":48.864703,"longitude":2.3569476,"name":"Feng Sheng","opening_hours":{"0":[],"1":[],"2":[],"3":[],"4":[],"5":[],"6":[]},"rating":3.7,"utc_offset":60}
{"id":"ChIJd9_vwxFu5kcR6v0OJsDK_SU","latitude":48.86951389999999,"longitude":2.355686299999999,"name":"Baranaan Indian Cocktail","opening_hours":{"0":[{"_1":0.0,"_2":4.0}],"1":[],"2":[{"_1":18.5,"_2":24.0}],"3":[{"_1":0.0,"_2":2.0},{"_1":18.5,"_2":24.0}],"4":[{"_1":0.0,"_2":2.0},{"_1":18.5,"_2":24.0}],"5":[{"_1":0.0,"_2":2.0},{"_1":18.5,"_2":24.0}],"6":[{"_1":0.0,"_2":4.0},{"_1":18.5,"_2":24.0}]},"rating":4.2,"utc_offset":60}
{"id":"ChIJVeblvxtu5kcRzTDPDPeHKFg","latitude":48.8625304,"longitude":2.352221399999999,"name":"La Mutinerie","opening_hours":{"0":[{"_1":17.0,"_2":24.0},{"_1":0.0,"_2":2.0}],"1":[{"_1":0.0,"_2":2.0},{"_1":17.0,"_2":24.0}],"2":[{"_1":0.0,"_2":2.0},{"_1":17.0,"_2":24.0}],"3":[{"_1":0.0,"_2":2.0},{"_1":17.0,"_2":24.0}],"4":[{"_1":0.0,"_2":2.0},{"_1":17.0,"_2":24.0}],"5":[{"_1":0.0,"_2":2.0},{"_1":17.0,"_2":24.0}],"6":[{"_1":0.0,"_2":2.0},{"_1":17.0,"_2":24.0}]},"rating":4.0,"utc_offset":60}
{"id":"ChIJxeWYERlu5kcRoIn7ihRv5vI","latitude":48.8630571,"longitude":2.3488926,"name":"Ari's Bagels","opening_hours":{"0":[{"_1":11.0,"_2":18.0}],"1":[{"_1":9.0,"_2":18.5}],"2":[{"_1":9.0,"_2":18.5}],"3":[{"_1":9.0,"_2":20.5}],"4":[{"_1":9.0,"_2":20.5}],"5":[{"_1":9.0,"_2":20.5}],"6":[{"_1":10.5,"_2":20.5}]},"rating":4.5,"utc_offset":60}
{"id":"ChIJi5pk4MNt5kcRubGwgtFOMV8","latitude":48.87933919999999,"longitude":2.385656,"name":"L'Olympe","opening_hours":{"0":[{"_1":8.0,"_2":24.0}],"1":[{"_1":8.0,"_2":24.0}],"2":[{"_1":8.0,"_2":24.0}],"3":[{"_1":8.0,"_2":24.0}],"4":[{"_1":8.0,"_2":24.0}],"5":[{"_1":8.0,"_2":24.0}],"6":[{"_1":8.0,"_2":24.0}]},"rating":4.3,"utc_offset":60}
{"id":"ChIJ7yo_IMFt5kcRs01VFqTTAng","latitude":48.8793131,"longitude":2.3884632,"name":"Délices Park","opening_hours":{"0":[{"_1":12.0,"_2":19.0}],"1":[{"_1":12.0,"_2":15.0}],"2":[{"_1":12.0,"_2":17.0}],"3":[{"_1":12.0,"_2":17.0}],"4":[{"_1":12.0,"_2":17.0},{"_1":18.0,"_2":22.0}],"5":[{"_1":12.0,"_2":22.0}],"6":[{"_1":12.0,"_2":22.0}]},"rating":5.0,"utc_offset":60}
{"id":"ChIJLTT1rRNu5kcRrpY6HfY_ecM","latitude":48.87305519999999,"longitude":2.3540112,"name":"Manpower Grand Paris Travaux Publics - Gros Œuvre, Paris, France","opening_hours":{"0":[{"_1":12.0,"_2":23.0}],"1":[],"2":[],"3":[{"_1":12.0,"_2":23.0}],"4":[{"_1":12.0,"_2":23.0}],"5":[{"_1":12.0,"_2":23.0}],"6":[{"_1":12.0,"_2":23.0}]},"rating":0.0,"utc_offset":60}
{"id":"ChIJrcErs9fd4EcRpf0Wi_fmNR4","latitude":49.4431737,"longitude":1.0946925,"name":"Kusmi Tea - Rouen","opening_hours":{"0":[],"1":[{"_1":10.0,"_2":19.0}],"2":[{"_1":10.0,"_2":19.0}],"3":[{"_1":10.0,"_2":19.0}],"4":[{"_1":10.0,"_2":19.0}],"5":[{"_1":10.0,"_2":19.0}],"6":[{"_1":10.0,"_2":19.0}]},"rating":4.7,"utc_offset":60}
{"id":"ChIJQTzaR_hC5kcR4bt0p847lmQ","latitude":49.0494093,"longitude":2.3357601,"name":"Delamare Eliane Núe Hoellard","opening_hours":{"0":[],"1":[],"2":[],"3":[],"4":[],"5":[],"6":[]},"rating":0.0,"utc_offset":60}
{"id":"ChIJR0vQYn5MHRURweWp22Z-atU","latitude":32.0772225,"longitude":34.76927829999999,"name":"Hot Dog בגרשוב","opening_hours":{"0":[{"_1":12.0,"_2":24.0},{"_1":0.0,"_2":2.0}],"1":[{"_1":12.0,"_2":24.0}],"2":[{"_1":0.0,"_2":2.0},{"_1":12.0,"_2":24.0}],"3":[{"_1":0.0,"_2":2.0},{"_1":12.0,"_2":24.0}],"4":[{"_1":0.0,"_2":2.0},{"_1":12.0,"_2":24.0}],"5":[{"_1":0.0,"_2":2.0}],"6":[{"_1":12.0,"_2":24.0}]},"rating":0.0,"utc_offset":120}
{"id":"ChIJU21eyyNu5kcRnZZIxUCKFRw","latitude":48.864141,"longitude":2.3334139,"name":"VIPROOM - La Gioia","opening_hours":{"0":[{"_1":0.0,"_2":2.0}],"1":[],"2":[{"_1":20.5,"_2":24.0}],"3":[{"_1":0.0,"_2":2.0},{"_1":20.5,"_2":24.0}],"4":[{"_1":0.0,"_2":2.0},{"_1":20.5,"_2":24.0}],"5":[{"_1":0.0,"_2":2.0},{"_1":20.5,"_2":24.0}],"6":[{"_1":0.0,"_2":2.0},{"_1":20.5,"_2":24.0}]},"rating":4.0,"utc_offset":60}
{"id":"ChIJg_AnfiVu5kcRh1WlwP5OEoQ","latitude":48.8641174,"longitude":2.3338335,"name":"Cafés Verlet","opening_hours":{"0":[],"1":[{"_1":9.5,"_2":18.5}],"2":[{"_1":9.5,"_2":18.5}],"3":[{"_1":9.5,"_2":18.5}],"4":[{"_1":9.5,"_2":18.5}],"5":[{"_1":9.5,"_2":18.5}],"6":[{"_1":9.5,"_2":18.5}]},"rating":4.1,"utc_offset":60}
{"id":"ChIJy0BIeg9u5kcR5AwjK59SBj0","latitude":48.8664886,"longitude":2.3598099,"name":"750 Gr Le Resto","opening_hours":{"0":[],"1":[],"2":[],"3":[],"4":[],"5":[],"6":[]},"rating":4.4,"utc_offset":60}
{"id":"ChIJOW9uhBpu5kcRgSIGtaSCt_k","latitude":48.8657378,"longitude":2.3541439,"name":"Etablissements F. Paris","opening_hours":{"0":[],"1":[],"2":[],"3":[],"4":[],"5":[],"6":[]},"rating":0.0,"utc_offset":60}
{"id":"ChIJOaOnTBFu5kcRBjLLRc0hjyI","latitude":48.8702541,"longitude":2.3512938,"name":"Karail Mazagran","opening_hours":{"0":[],"1":[],"2":[],"3":[],"4":[],"5":[],"6":[]},"rating":5.0,"utc_offset":60}
{"id":"ChIJ_Zoff4pv5kcRA2l1cmjo8Xk","latitude":48.8802659,"longitude":2.2783987,"name":"Océan Café","opening_hours":{"0":[],"1":[],"2":[],"3":[],"4":[],"5":[],"6":[]},"rating":0.0,"utc_offset":60}
{"id":"ChIJQYgohRNu5kcReVMa6MNEpbg","latitude":48.8732108,"longitude":2.3521487,"name":"Cinco Bodega","opening_hours":{"0":[{"_1":0.0,"_2":1.5}],"1":[{"_1":18.0,"_2":24.0}],"2":[{"_1":0.0,"_2":1.5},{"_1":18.0,"_2":24.0}],"3":[{"_1":0.0,"_2":1.5},{"_1":18.0,"_2":24.0}],"4":[{"_1":0.0,"_2":1.5},{"_1":18.0,"_2":24.0}],"5":[{"_1":0.0,"_2":1.5},{"_1":18.0,"_2":24.0}],"6":[{"_1":0.0,"_2":1.5},{"_1":18.0,"_2":24.0}]},"rating":4.2,"utc_offset":60}
{"id":"ChIJuWLV-AVu5kcRwZjvx0PKeHk","latitude":48.8656517,"longitude":2.3616018,"name":"Máncora Cebicheria","opening_hours":{"0":[{"_1":12.0,"_2":15.0},{"_1":19.0,"_2":23.0}],"1":[],"2":[{"_1":12.0,"_2":14.5},{"_1":19.0,"_2":22.5}],"3":[{"_1":12.0,"_2":14.5},{"_1":19.0,"_2":22.5}],"4":[{"_1":12.0,"_2":14.5},{"_1":19.0,"_2":22.5}],"5":[{"_1":12.0,"_2":14.5},{"_1":19.0,"_2":22.5}],"6":[{"_1":12.0,"_2":15.0},{"_1":19.0,"_2":23.0}]},"rating":4.6,"utc_offset":60}
{"id":"ChIJeR-ZJQ5u5kcRUr-tuIJrUVk","latitude":48.86917,"longitude":2.357268,"name":"Zerda Café Paris 10 - Couscous Tajines","opening_hours":{"0":[],"1":[{"_1":19.0,"_2":23.0}],"2":[{"_1":12.0,"_2":14.5},{"_1":19.0,"_2":23.0}],"3":[{"_1":12.0,"_2":14.5},{"_1":19.0,"_2":23.0}],"4":[{"_1":12.0,"_2":14.5},{"_1":19.0,"_2":23.0}],"5":[{"_1":12.0,"_2":14.5},{"_1":19.0,"_2":23.0}],"6":[{"_1":19.0,"_2":23.0}]},"rating":4.2,"utc_offset":60}
{"id":"ChIJmRGY02Fl5kcRJrY587yKiR4","latitude":48.88032800000001,"longitude":2.278583,"name":"Epices Riz - Tapas & Pasta","opening_hours":{"0":[],"1":[{"_1":9.0,"_2":22.5}],"2":[{"_1":9.0,"_2":22.5}],"3":[{"_1":9.0,"_2":22.5}],"4":[{"_1":9.0,"_2":22.5}],"5":[{"_1":9.0,"_2":22.5}],"6":[{"_1":9.0,"_2":22.5}]},"rating":3.5,"utc_offset":60}
{"id":"ChIJxbebsxNu5kcRLvxkrrrpRQA","latitude":48.872775,"longitude":2.354222,"name":"Kebox Kebap","opening_hours":{"0":[{"_1":11.0,"_2":24.0},{"_1":0.0,"_2":2.0}],"1":[{"_1":11.0,"_2":24.0}],"2":[{"_1":11.0,"_2":24.0}],"3":[{"_1":0.0,"_2":2.0},{"_1":11.0,"_2":24.0}],"4":[{"_1":0.0,"_2":2.0},{"_1":11.0,"_2":24.0}],"5":[{"_1":0.0,"_2":2.0},{"_1":11.0,"_2":24.0}],"6":[{"_1":0.0,"_2":2.0},{"_1":11.0,"_2":24.0}]},"rating":4.2,"utc_offset":60}
{"id":"ChIJC80sMw5u5kcR5VRdaCBbwXE","latitude":48.8685461,"longitude":2.3576322,"name":"Restaurant Chinois Traditionnel","opening_hours":{"0":[],"1":[],"2":[{"_1":12.0,"_2":23.0}],"3":[{"_1":12.0,"_2":23.0}],"4":[{"_1":12.0,"_2":23.0}],"5":[{"_1":12.0,"_2":23.0}],"6":[{"_1":12.0,"_2":23.0}]},"rating":4.5,"utc_offset":60}
{"id":"ChIJq4uLWCNy5kcRXkb61VLISMs","latitude":48.8309748,"longitude":2.3746375,"name":"Le soixante douze","opening_hours":{"0":[{"_1":10.0,"_2":24.0},{"_1":0.0,"_2":2.0}],"1":[{"_1":10.0,"_2":24.0}],"2":[{"_1":10.0,"_2":24.0}],"3":[{"_1":10.0,"_2":24.0}],"4":[{"_1":10.0,"_2":24.0}],"5":[{"_1":10.0,"_2":24.0}],"6":[{"_1":0.0,"_2":2.0},{"_1":10.0,"_2":24.0}]},"rating":4.0,"utc_offset":60}
{"id":"ChIJg6wFsjxy5kcR3CfwT8tT7MI","latitude":48.8313112,"longitude":2.3763562,"name":"L'avenue","opening_hours":{"0":[{"_1":9.0,"_2":24.0},{"_1":0.0,"_2":2.0}],"1":[{"_1":0.0,"_2":2.0},{"_1":7.0,"_2":24.0}],"2":[{"_1":0.0,"_2":2.0},{"_1":7.0,"_2":24.0}],"3":[{"_1":0.0,"_2":2.0},{"_1":7.0,"_2":24.0}],"4":[{"_1":0.0,"_2":2.0},{"_1":7.0,"_2":24.0}],"5":[{"_1":0.0,"_2":2.0},{"_1":7.0,"_2":24.0}],"6":[{"_1":0.0,"_2":2.0},{"_1":9.0,"_2":24.0}]},"rating":2.6,"utc_offset":60}
{"id":"ChIJpbmZVtbd4EcRuRwRk4ts3KQ","latitude":49.4437471,"longitude":1.095089,"name":"La Buissonnière","opening_hours":{"0":[],"1":[],"2":[{"_1":12.0,"_2":14.0}],"3":[{"_1":12.0,"_2":14.0}],"4":[{"_1":12.0,"_2":14.0},{"_1":19.5,"_2":22.0}],"5":[{"_1":12.0,"_2":14.0},{"_1":19.5,"_2":22.0}],"6":[{"_1":12.0,"_2":14.0},{"_1":19.5,"_2":22.0}]},"rating":4.7,"utc_offset":60}
{"id":"ChIJ-cUdMOZt5kcROFjqTKTTMlI","latitude":48.87245759999999,"longitude":2.378872,"name":"Lin Soul","opening_hours":{"0":[],"1":[],"2":[],"3":[],"4":[],"5":[],"6":[]},"rating":0.0,"utc_offset":60}
{"id":"ChIJWyVepXRy5kcR-LhTCo34KkA","latitude":48.85081779999999,"longitude":2.389704,"name":"Satouri Bassem","opening_hours":{"0":[],"1":[],"2":[],"3":[],"4":[],"5":[],"6":[]},"rating":0.0,"utc_offset":60}
{"id":"ChIJMYa_tV9u5kcRa2WwnFIwK3s","latitude":48.894253,"longitude":2.345909,"name":"Doppio","opening_hours":{"0":[{"_1":11.5,"_2":15.0}],"1":[{"_1":11.5,"_2":14.5},{"_1":19.0,"_2":23.0}],"2":[{"_1":11.5,"_2":14.5},{"_1":19.0,"_2":23.0}],"3":[{"_1":11.5,"_2":14.5},{"_1":19.0,"_2":23.0}],"4":[{"_1":11.5,"_2":14.5},{"_1":19.0,"_2":23.0}],"5":[{"_1":11.5,"_2":14.5},{"_1":19.0,"_2":23.0}],"6":[{"_1":11.5,"_2":14.5},{"_1":19.0,"_2":23.0}]},"rating":4.8,"utc_offset":60}
{"id":"ChIJo6rO7pBx5kcRXyDNaNBpPdU","latitude":48.8275926,"longitude":2.3496643,"name":"Lagarde Daniel","opening_hours":{"0":[],"1":[],"2":[],"3":[],"4":[],"5":[],"6":[]},"rating":0.0,"utc_offset":60}
{"id":"ChIJL2Gupwtu5kcRccu6L87htAE","latitude":48.8733988,"longitude":2.3646421,"name":"DonAntónia Pastelaria","opening_hours":{"0":[{"_1":9.5,"_2":19.0}],"1":[],"2":[{"_1":9.5,"_2":18.5}],"3":[{"_1":9.5,"_2":18.5}],"4":[{"_1":9.5,"_2":18.5}],"5":[{"_1":9.5,"_2":18.5}],"6":[{"_1":9.5,"_2":19.0}]},"rating":4.8,"utc_offset":60}
{"id":"ChIJEwbXRwpu5kcRVp0biS8GP78","latitude":48.87221539999999,"longitude":2.3662958,"name":"PHILOU","opening_hours":{"0":[],"1":[],"2":[{"_1":12.0,"_2":23.0}],"3":[{"_1":12.0,"_2":23.0}],"4":[{"_1":12.0,"_2":23.0}],"5":[{"_1":12.0,"_2":23.0}],"6":[{"_1":12.0,"_2":23.0}]},"rating":4.5,"utc_offset":60}
{"id":"ChIJGaJwxQ9u5kcRlxwpVM7z-4A","latitude":48.8678777,"longitude":2.3575197,"name":"Pizza Da Michel","opening_hours":{"0":[],"1":[],"2":[],"3":[],"4":[],"5":[],"6":[]},"rating":0.0,"utc_offset":60}
{"id":"ChIJcTfN6JBx5kcRGgAMT2F8MRM","latitude":48.827812,"longitude":2.3494367,"name":"Le Diamant","opening_hours":{"0":[{"_1":7.0,"_2":24.0},{"_1":0.0,"_2":2.0}],"1":[{"_1":0.0,"_2":2.0},{"_1":7.0,"_2":24.0}],"2":[{"_1":0.0,"_2":2.0},{"_1":7.0,"_2":24.0}],"3":[{"_1":0.0,"_2":2.0},{"_1":7.0,"_2":24.0}],"4":[{"_1":0.0,"_2":2.0},{"_1":7.0,"_2":24.0}],"5":[{"_1":0.0,"_2":2.0},{"_1":7.0,"_2":24.0}],"6":[{"_1":0.0,"_2":2.0},{"_1":7.0,"_2":24.0}]},"rating":4.0,"utc_offset":60}
{"id":"ChIJq6n5kRFu5kcRxowW0s_4C4k","latitude":48.8702176,"longitude":2.3550211,"name":"Strasbourg","opening_hours":{"0":[],"1":[],"2":[],"3":[],"4":[],"5":[],"6":[]},"rating":3.0,"utc_offset":60}
{"id":"ChIJCagvUhFu5kcRl525UnAZYq8","latitude":48.8707467,"longitude":2.3515893,"name":"Haweli","opening_hours":{"0":[],"1":[],"2":[],"3":[],"4":[],"5":[],"6":[]},"rating":4.2,"utc_offset":60}
{"id":"ChIJH0__gX5MHRUR7HveriSUp1E","latitude":32.077881,"longitude":34.768648,"name":"Cerveceria - Spanish Beer & Tapas","opening_hours":{"0":[{"_1":17.0,"_2":24.0},{"_1":0.0,"_2":2.0}],"1":[{"_1":0.0,"_2":1.0},{"_1":17.0,"_2":24.0}],"2":[{"_1":0.0,"_2":1.0},{"_1":17.0,"_2":24.0}],"3":[{"_1":0.0,"_2":1.0},{"_1":17.0,"_2":24.0}],"4":[{"_1":0.0,"_2":1.0},{"_1":17.0,"_2":24.0}],"5":[{"_1":0.0,"_2":1.0},{"_1":12.0,"_2":24.0}],"6":[{"_1":0.0,"_2":1.0},{"_1":11.0,"_2":24.0}]},"rating":4.1,"utc_offset":120}
{"id":"ChIJ__8Twhpu5kcRLkSjIDQ7dWo","latitude":48.864448,"longitude":2.3550433,"name":"Your Kitchen","opening_hours":{"0":[{"_1":11.5,"_2":23.5}],"1":[],"2":[{"_1":11.5,"_2":23.5}],"3":[{"_1":11.5,"_2":23.5}],"4":[{"_1":11.5,"_2":23.5}],"5":[{"_1":11.5,"_2":23.5}],"6":[{"_1":11.5,"_2":23.5}]},"rating":4.6,"utc_offset":60}
{"id":"ChIJhWJdGQ9u5kcRGwZxAYGMRfU","latitude":48.8680957,"longitude":2.3604073,"name":"Chouchou Bar","opening_hours":{"0":[],"1":[],"2":[],"3":[],"4":[],"5":[],"6":[]},"rating":0.0,"utc_offset":60}
{"id":"ChIJY0g8FU1u5kcRt07KK3BHrF8","latitude":48.8855503,"longitude":2.3257461,"name":"Lucien La Chance","opening_hours":{"0":[{"_1":12.0,"_2":15.0},{"_1":18.5,"_2":24.0},{"_1":0.0,"_2":1.5}],"1":[{"_1":0.0,"_2":0.5},{"_1":18.5,"_2":24.0}],"2":[{"_1":0.0,"_2":0.5},{"_1":18.5,"_2":24.0}],"3":[{"_1":0.0,"_2":0.5},{"_1":18.5,"_2":24.0}],"4":[{"_1":0.0,"_2":0.5},{"_1":18.5,"_2":24.0}],"5":[{"_1":0.0,"_2":0.5},{"_1":18.5,"_2":24.0}],"6":[{"_1":0.0,"_2":1.5},{"_1":12.0,"_2":15.0},{"_1":18.5,"_2":24.0}]},"rating":4.0,"utc_offset":60}
{"id":"ChIJi7ud3MNt5kcR7nnPdIkLOi4","latitude":48.87878159999999,"longitude":2.3851194,"name":"La Lanterne","opening_hours":{"0":[],"1":[],"2":[],"3":[],"4":[],"5":[],"6":[]},"rating":2.0,"utc_offset":60}
{"id":"ChIJxW10QHZu5kcR_0OSzJYAnlA","latitude":48.882233,"longitude":2.367489,"name":"Le 233","opening_hours":{"0":[],"1":[],"2":[],"3":[],"4":[],"5":[],"6":[]},"rating":0.0,"utc_offset":60}
{"id":"ChIJv25Mjw5u5kcRFgQ84pgMyuo","latitude":48.870329,"longitude":2.3600504,"name":"Le Navy","opening_hours":{"0":[],"1":[{"_1":7.5,"_2":21.0}],"2":[{"_1":7.5,"_2":21.0}],"3":[{"_1":7.5,"_2":21.0}],"4":[{"_1":7.5,"_2":21.0}],"5":[{"_1":7.5,"_2":21.0}],"6":[{"_1":7.5,"_2":21.0}]},"rating":5.0,"utc_offset":60}
{"id":"ChIJ74xKSAVu5kcRnHU42GDV9HI","latitude":48.8648366,"longitude":2.3570274,"name":"Bagel Tom","opening_hours":{"0":[],"1":[{"_1":12.0,"_2":17.5}],"2":[{"_1":12.0,"_2":22.0}],"3":[{"_1":12.0,"_2":22.0}],"4":[{"_1":12.0,"_2":22.0}],"5":[{"_1":12.0,"_2":22.0}],"6":[{"_1":12.0,"_2":22.0}]},"rating":4.2,"utc_offset":60}
{"id":"ChIJNQCWs19u5kcR55xu8BroyME","latitude":48.8941494,"longitude":2.345682,"name":"Le Bon Plan Restauration","opening_hours":{"0":[],"1":[],"2":[],"3":[],"4":[],"5":[],"6":[]},"rating":0.0,"utc_offset":60}
{"id":"ChIJuYJGuRZu5kcRH2oCADyJiKU","latitude":48.870543,"longitude":2.3503427,"name":"Pizza Hut Bonne Nouvelle","opening_hours":{"0":[{"_1":11.75,"_2":22.5}],"1":[{"_1":11.75,"_2":22.5}],"2":[{"_1":11.75,"_2":23.0}],"3":[{"_1":11.75,"_2":23.0}],"4":[{"_1":11.75,"_2":23.0}],"5":[{"_1":11.75,"_2":23.0}],"6":[{"_1":11.75,"_2":23.0}]},"rating":3.3,"utc_offset":60}
{"id":"ChIJu3zo7AVu5kcRMcUO_cMZLAI","latitude":48.8651356,"longitude":2.360755799999999,"name":"Marché Noir","opening_hours":{"0":[{"_1":8.0,"_2":22.0}],"1":[{"_1":8.0,"_2":22.0}],"2":[{"_1":8.0,"_2":22.0}],"3":[{"_1":8.0,"_2":22.0}],"4":[{"_1":8.0,"_2":22.0}],"5":[{"_1":8.0,"_2":22.0}],"6":[{"_1":8.0,"_2":22.0}]},"rating":4.9,"utc_offset":60}
{"id":"ChIJFdZgOg5u5kcR3mYHPu1BCHU","latitude":48.8692859,"longitude":2.357559799999999,"name":"All Star","opening_hours":{"0":[{"_1":11.0,"_2":24.0},{"_1":0.0,"_2":2.0}],"1":[{"_1":0.0,"_2":2.0},{"_1":11.0,"_2":24.0}],"2":[{"_1":0.0,"_2":2.0},{"_1":11.0,"_2":24.0}],"3":[{"_1":0.0,"_2":2.0},{"_1":11.0,"_2":24.0}],"4":[{"_1":0.0,"_2":2.0},{"_1":11.0,"_2":24.0}],"5":[{"_1":0.0,"_2":2.0},{"_1":11.0,"_2":24.0}],"6":[{"_1":0.0,"_2":2.0},{"_1":11.0,"_2":24.0}]},"rating":4.5,"utc_offset":60}
{"id":"ChIJzU89SQVu5kcRulISbJu3oz4","latitude":48.8650223,"longitude":2.3569121,"name":"Chez XU (spécialités du WenZhou)","opening_hours":{"0":[{"_1":7.5,"_2":22.0}],"1":[{"_1":7.5,"_2":22.0}],"2":[{"_1":7.5,"_2":17.5}],"3":[{"_1":7.5,"_2":22.0}],"4":[{"_1":7.5,"_2":22.0}],"5":[{"_1":7.5,"_2":22.0}],"6":[{"_1":7.5,"_2":22.0}]},"rating":4.4,"utc_offset":60}
{"id":"ChIJG3KRkRBu5kcRMVfJdY_kn7E","latitude":48.86687609999999,"longitude":2.3534046,"name":"Le Bistrot de la Gaité - Restaurant Paris","opening_hours":{"0":[{"_1":10.0,"_2":22.5}],"1":[{"_1":8.0,"_2":24.0}],"2":[{"_1":8.0,"_2":24.0}],"3":[{"_1":8.0,"_2":24.0}],"4":[{"_1":8.0,"_2":24.0}],"5":[{"_1":8.0,"_2":24.0}],"6":[{"_1":10.0,"_2":24.0}]},"rating":3.4,"utc_offset":60}
{"id":"ChIJrYIU7xpu5kcRpBfmWzYU6wc","latitude":48.86440809999999,"longitude":2.3546097,"name":"KOKO cantine japonaise","opening_hours":{"0":[],"1":[{"_1":12.0,"_2":15.0},{"_1":19.0,"_2":23.0}],"2":[{"_1":12.0,"_2":15.0},{"_1":19.0,"_2":23.0}],"3":[{"_1":12.0,"_2":15.0},{"_1":19.0,"_2":23.0}],"4":[{"_1":12.0,"_2":15.0},{"_1":19.0,"_2":23.0}],"5":[{"_1":12.0,"_2":15.0},{"_1":19.0,"_2":23.0}],"6":[{"_1":12.0,"_2":15.0},{"_1":19.0,"_2":23.0}]},"rating":4.1,"utc_offset":60}
{"id":"ChIJ0WmQzgBy5kcRQWOrPs988wQ","latitude":48.85399529999999,"longitude":2.3719523,"name":"Tortilla 10","opening_hours":{"0":[{"_1":17.5,"_2":24.0},{"_1":0.0,"_2":2.0}],"1":[{"_1":0.0,"_2":2.0},{"_1":17.5,"_2":24.0}],"2":[{"_1":0.0,"_2":2.0},{"_1":17.5,"_2":24.0}],"3":[{"_1":0.0,"_2":2.0},{"_1":17.5,"_2":24.0}],"4":[{"_1":0.0,"_2":2.0},{"_1":17.5,"_2":24.0}],"5":[{"_1":0.0,"_2":2.0},{"_1":17.5,"_2":24.0}],"6":[{"_1":0.0,"_2":2.0},{"_1":17.5,"_2":24.0}]},"rating":3.9,"utc_offset":60}
{"id":"ChIJR3X3jQ5u5kcRmhN1QjKpoZI","latitude":48.8699912,"longitude":2.3603205,"name":"Corbière Berenger","opening_hours":{"0":[],"1":[],"2":[],"3":[],"4":[],"5":[],"6":[]},"rating":0.0,"utc_offset":60}
{"id":"ChIJ1b1TlAtu5kcRrs7eP2Oo7B8","latitude":48.87237719999999,"longitude":2.363882599999999,"name":"FRIC-FRAC","opening_hours":{"0":[{"_1":12.0,"_2":22.0}],"1":[],"2":[{"_1":12.0,"_2":15.0},{"_1":19.5,"_2":22.5}],"3":[{"_1":12.0,"_2":15.0},{"_1":19.5,"_2":22.5}],"4":[{"_1":12.0,"_2":15.0},{"_1":19.5,"_2":22.5}],"5":[{"_1":12.0,"_2":15.0},{"_1":19.5,"_2":22.5}],"6":[{"_1":12.0,"_2":22.5}]},"rating":4.6,"utc_offset":60}
{"id":"ChIJCX30Jw5u5kcR8bFwtshdELc","latitude":48.8693758,"longitude":2.3569352,"name":"Meisia 2.0 - Boardgame Café","opening_hours":{"0":[{"_1":12.0,"_2":22.0}],"1":[{"_1":17.0,"_2":24.0}],"2":[{"_1":17.0,"_2":24.0}],"3":[{"_1":17.0,"_2":24.0}],"4":[{"_1":12.0,"_2":24.0}],"5":[{"_1":12.0,"_2":24.0}],"6":[{"_1":12.0,"_2":24.0}]},"rating":4.5,"utc_offset":60}
{"id":"ChIJC80sMw5u5kcREpYuIRlKPgI","latitude":48.8685461,"longitude":2.3576322,"name":"Petit villa","opening_hours":{"0":[{"_1":19.0,"_2":23.0}],"1":[{"_1":19.0,"_2":23.0}],"2":[{"_1":12.0,"_2":15.0},{"_1":19.0,"_2":23.0}],"3":[{"_1":12.0,"_2":15.0},{"_1":19.0,"_2":23.0}],"4":[{"_1":12.0,"_2":15.0},{"_1":19.0,"_2":23.0}],"5":[{"_1":12.0,"_2":15.0},{"_1":19.0,"_2":23.0}],"6":[{"_1":12.0,"_2":15.0},{"_1":19.0,"_2":23.0}]},"rating":0.0,"utc_offset":60}
{"id":"ChIJy2tKyhpu5kcRj29V2fhBJgc","latitude":48.8646558,"longitude":2.356141699999999,"name":"萬里香包子","opening_hours":{"0":[],"1":[],"2":[],"3":[],"4":[],"5":[],"6":[]},"rating":0.0,"utc_offset":60}
{"id":"ChIJ5aXm60xu5kcRSsQrTXqFMlQ","latitude":48.8834703,"longitude":2.3259269,"name":"Brasserie Le Moncey","opening_hours":{"0":[{"_1":8.0,"_2":24.0},{"_1":0.0,"_2":1.5}],"1":[{"_1":0.0,"_2":1.5},{"_1":8.0,"_2":24.0}],"2":[{"_1":0.0,"_2":1.5},{"_1":8.0,"_2":24.0}],"3":[{"_1":0.0,"_2":1.5},{"_1":8.0,"_2":24.0}],"4":[{"_1":0.0,"_2":1.5},{"_1":8.0,"_2":24.0}],"5":[{"_1":0.0,"_2":1.5},{"_1":8.0,"_2":24.0}],"6":[{"_1":0.0,"_2":1.5},{"_1":8.0,"_2":24.0}]},"rating":3.5,"utc_offset":60}
{"id":"ChIJVxgWJg5u5kcRlvPFwxfFEx8","latitude":48.86916919999999,"longitude":2.3572001,"name":"Bar Du Theatre","opening_hours":{"0":[{"_1":0.0,"_2":2.0}],"1":[],"2":[],"3":[{"_1":15.0,"_2":24.0}],"4":[{"_1":0.0,"_2":2.0},{"_1":15.0,"_2":24.0}],"5":[{"_1":0.0,"_2":2.0},{"_1":15.0,"_2":24.0}],"6":[{"_1":0.0,"_2":2.0},{"_1":15.0,"_2":24.0}]},"rating":5.0,"utc_offset":60}
{"id":"ChIJI9asphdu5kcR15A8u5M2YiE","latitude":48.867831,"longitude":2.347951,"name":"Frenchie bar à vin","opening_hours":{"0":[{"_1":19.0,"_2":23.0}],"1":[{"_1":19.0,"_2":23.0}],"2":[{"_1":19.0,"_2":23.0}],"3":[{"_1":19.0,"_2":23.0}],"4":[{"_1":19.0,"_2":23.0}],"5":[{"_1":19.0,"_2":23.0}],"6":[{"_1":19.0,"_2":23.0}]},"rating":4.9,"utc_offset":60}
{"id":"ChIJde3lRdbd4EcRMzxSNzBSmUI","latitude":49.4431034,"longitude":1.0953664,"name":"Boulangerie PAUL","opening_hours":{"0":[],"1":[{"_1":7.0,"_2":20.5}],"2":[{"_1":7.0,"_2":20.5}],"3":[{"_1":7.0,"_2":20.5}],"4":[{"_1":7.0,"_2":20.5}],"5":[{"_1":7.0,"_2":20.5}],"6":[{"_1":7.0,"_2":20.5}]},"rating":2.8,"utc_offset":60}
{"id":"ChIJlcwsKQpu5kcRFhfUUxWAtMc","latitude":48.8713302,"longitude":2.365864,"name":"The Cork And Cavan","opening_hours":{"0":[{"_1":12.0,"_2":24.0},{"_1":0.0,"_2":2.0}],"1":[{"_1":0.0,"_2":2.0},{"_1":15.0,"_2":24.0}],"2":[{"_1":0.0,"_2":2.0},{"_1":15.0,"_2":24.0}],"3":[{"_1":0.0,"_2":2.0},{"_1":15.0,"_2":24.0}],"4":[{"_1":0.0,"_2":2.0},{"_1":15.0,"_2":24.0}],"5":[{"_1":0.0,"_2":2.0},{"_1":15.0,"_2":24.0}],"6":[{"_1":0.0,"_2":2.0},{"_1":13.0,"_2":24.0}]},"rating":4.2,"utc_offset":60}
{"id":"ChIJwbIM-RBu5kcRtU8Tm6oGXoU","latitude":48.8683368,"longitude":2.3541562,"name":"Click","opening_hours":{"0":[],"1":[],"2":[],"3":[],"4":[],"5":[],"6":[]},"rating":0.0,"utc_offset":60}
{"id":"ChIJEQW0Aw9u5kcR3kmvlbR0IyA","latitude":48.868147,"longitude":2.3598101,"name":"Restaurant le Porte Bonheur","opening_hours":{"0":[],"1":[],"2":[],"3":[],"4":[],"5":[],"6":[]},"rating":5.0,"utc_offset":60}
{"id":"ChIJ8QIXbBpu5kcRyNHIcMnIpRs","latitude":48.86528439999999,"longitude":2.3526087,"name":"Cgms Et Associés","opening_hours":{"0":[],"1":[],"2":[],"3":[],"4":[],"5":[],"6":[]},"rating":0.0,"utc_offset":60}
{"id":"ChIJZSvrOOZt5kcRkTGTQdp_KMw","latitude":48.872323,"longitude":2.3782157,"name":"Au Vieux Saumur","opening_hours":{"0":[],"1":[],"2":[],"3":[],"4":[],"5":[],"6":[]},"rating":5.0,"utc_offset":60}
{"id":"ChIJ9_hBZA5u5kcRfEdO63WfdRE","latitude":48.8701845,"longitude":2.3592306,"name":"Fifi la praline","opening_hours":{"0":[],"1":[],"2":[],"3":[],"4":[],"5":[],"6":[]},"rating":5.0,"utc_offset":60}
{"id":"ChIJXQe42hRu5kcRFuZ-PC_YrSE","latitude":48.87550350000001,"longitude":2.349554,"name":"Gardenia","opening_hours":{"0":[],"1":[{"_1":11.75,"_2":15.5},{"_1":18.5,"_2":23.0}],"2":[{"_1":11.75,"_2":15.5},{"_1":18.5,"_2":23.0}],"3":[{"_1":11.75,"_2":15.5},{"_1":18.5,"_2":23.0}],"4":[{"_1":11.75,"_2":15.5},{"_1":18.5,"_2":23.0}],"5":[{"_1":11.75,"_2":15.5},{"_1":18.5,"_2":23.0}],"6":[{"_1":18.5,"_2":22.5}]},"rating":4.4,"utc_offset":60}
{"id":"ChIJn8q_UBFu5kcRxW8yaomhpDQ","latitude":48.8707177,"longitude":2.3519491,"name":"Restaurant Saveurs des iles","opening_hours":{"0":[],"1":[],"2":[],"3":[],"4":[],"5":[],"6":[]},"rating":4.0,"utc_offset":60}
{"id":"ChIJUUma8Dlu5kcRbqF6Btd29Lw","latitude":48.8719369,"longitude":2.3352489,"name":"新香港","opening_hours":{"0":[],"1":[],"2":[],"3":[],"4":[],"5":[],"6":[]},"rating":3.7,"utc_offset":60}
{"id":"ChIJ02Lg3z1u5kcRIyN9MB7QdlY","latitude":48.8711436,"longitude":2.344143799999999,"name":"Corcoran's Irish Pub Grands Boulevards","opening_hours":{"0":[{"_1":11.0,"_2":24.0},{"_1":0.0,"_2":2.0}],"1":[{"_1":0.0,"_2":2.0},{"_1":9.0,"_2":24.0}],"2":[{"_1":0.0,"_2":2.0},{"_1":9.0,"_2":24.0}],"3":[{"_1":0.0,"_2":2.0},{"_1":9.0,"_2":24.0}],"4":[{"_1":0.0,"_2":3.0},{"_1":9.0,"_2":24.0}],"5":[{"_1":0.0,"_2":5.0},{"_1":9.0,"_2":24.0}],"6":[{"_1":0.0,"_2":5.0},{"_1":11.0,"_2":24.0}]},"rating":3.6,"utc_offset":60}
{"id":"ChIJCfyGSxBu5kcRQLE5LuNBfBw","latitude":48.8684217,"longitude":2.3550217,"name":"Cecilia Sarl","opening_hours":{"0":[],"1":[],"2":[],"3":[],"4":[],"5":[],"6":[]},"rating":0.0,"utc_offset":60}
{"id":"ChIJh1ckgH5MHRURu-zGw_sy1aw","latitude":32.0776659,"longitude":34.768587,"name":"Burger Bar Cosher","opening_hours":{"0":[],"1":[],"2":[],"3":[],"4":[],"5":[],"6":[]},"rating":0.0,"utc_offset":120}
{"id":"ChIJr7D4gX5MHRURBq7_PjFMhz8","latitude":32.0778434,"longitude":34.768655,"name":"Cafe Esther","opening_hours":{"0":[],"1":[],"2":[],"3":[],"4":[],"5":[],"6":[]},"rating":4.0,"utc_offset":120}
{"id":"ChIJlRU_yhNu5kcRhj4-_M_tv2k","latitude":48.8723718,"longitude":2.353868899999999,"name":"Marie Lounic'H","opening_hours":{"0":[],"1":[],"2":[],"3":[],"4":[],"5":[],"6":[]},"rating":0.0,"utc_offset":60}
{"id":"ChIJAe0-WHNy5kcRSnKhw1hAxDE","latitude":48.8503621,"longitude":2.3897306,"name":"Pizza Venise","opening_hours":{"0":[{"_1":11.0,"_2":15.0},{"_1":18.0,"_2":23.0}],"1":[{"_1":11.0,"_2":15.0},{"_1":18.0,"_2":23.0}],"2":[{"_1":11.0,"_2":15.0},{"_1":18.0,"_2":23.0}],"3":[{"_1":11.0,"_2":15.0},{"_1":18.0,"_2":23.0}],"4":[{"_1":11.0,"_2":15.0},{"_1":18.0,"_2":23.0}],"5":[{"_1":11.0,"_2":15.0},{"_1":18.0,"_2":23.0}],"6":[{"_1":11.0,"_2":15.0},{"_1":18.0,"_2":23.0}]},"rating":4.6,"utc_offset":60}
{"id":"ChIJC0S_hxlu5kcRMx4l35zcS1Y","latitude":48.8636658,"longitude":2.3488466,"name":"Neric","opening_hours":{"0":[],"1":[],"2":[],"3":[],"4":[],"5":[],"6":[]},"rating":0.0,"utc_offset":60}
{"id":"ChIJh9CWKNlx5kcRgsy7Hu0VB-g","latitude":48.8534263,"longitude":2.338015200000001,"name":"Pizzeria Pepone","opening_hours":{"0":[{"_1":11.0,"_2":15.0},{"_1":18.0,"_2":24.0}],"1":[{"_1":11.0,"_2":15.0},{"_1":18.0,"_2":24.0}],"2":[{"_1":11.0,"_2":15.0},{"_1":18.0,"_2":24.0}],"3":[{"_1":11.0,"_2":15.0},{"_1":18.0,"_2":24.0}],"4":[{"_1":11.0,"_2":15.0},{"_1":18.0,"_2":24.0}],"5":[{"_1":11.0,"_2":15.0},{"_1":18.0,"_2":24.0}],"6":[{"_1":11.0,"_2":15.0},{"_1":18.0,"_2":24.0}]},"rating":3.5,"utc_offset":60}
{"id":"ChIJ-yhUhBlu5kcRn7oY-yhJGpw","latitude":48.8640017,"longitude":2.3503816,"name":"Matsusushi","opening_hours":{"0":[],"1":[],"2":[],"3":[],"4":[],"5":[],"6":[]},"rating":3.8,"utc_offset":60}
{"id":"ChIJ6SiNWgVu5kcRUAUbNO40X_I","latitude":48.865533,"longitude":2.357262,"name":"Cantine volta","opening_hours":{"0":[],"1":[{"_1":12.0,"_2":14.5}],"2":[{"_1":12.0,"_2":14.5}],"3":[{"_1":12.0,"_2":14.5}],"4":[{"_1":12.0,"_2":14.5}],"5":[{"_1":12.0,"_2":14.5}],"6":[]},"rating":5.0,"utc_offset":60}
{"id":"ChIJLaaekRFu5kcRMe87CR7uVAM","latitude":48.8701782,"longitude":2.3542368,"name":"Pin Arthur","opening_hours":{"0":[],"1":[],"2":[],"3":[],"4":[],"5":[],"6":[]},"rating":0.0,"utc_offset":60}
{"id":"ChIJTwM1CxFu5kcRIhdQlxj-Vco","latitude":48.86984820000001,"longitude":2.3538868,"name":"Luxor","opening_hours":{"0":[],"1":[],"2":[],"3":[],"4":[],"5":[],"6":[]},"rating":0.0,"utc_offset":60}
{"id":"ChIJLbfNKOZt5kcR-YZ7L5fpFLw","latitude":48.8725525,"longitude":2.3790629,"name":"Wenzhou Restaurant","opening_hours":{"0":[{"_1":10.0,"_2":22.0}],"1":[{"_1":10.0,"_2":22.0}],"2":[{"_1":10.0,"_2":22.0}],"3":[{"_1":10.0,"_2":22.0}],"4":[],"5":[{"_1":10.0,"_2":22.0}],"6":[{"_1":10.0,"_2":22.0}]},"rating":4.0,"utc_offset":60}
{"id":"ChIJTfmcNA5u5kcRfYHXVftk1eM","latitude":48.8688029,"longitude":2.3579407,"name":"L'attirail Cafe","opening_hours":{"0":[{"_1":16.0,"_2":24.0},{"_1":0.0,"_2":2.0}],"1":[{"_1":16.0,"_2":24.0}],"2":[{"_1":0.0,"_2":2.0},{"_1":16.0,"_2":24.0}],"3":[{"_1":0.0,"_2":2.0},{"_1":16.0,"_2":24.0}],"4":[{"_1":0.0,"_2":2.0},{"_1":16.0,"_2":24.0}],"5":[{"_1":0.0,"_2":2.0},{"_1":16.0,"_2":24.0}],"6":[{"_1":0.0,"_2":2.0},{"_1":16.0,"_2":24.0}]},"rating":3.9,"utc_offset":60}
{"id":"ChIJVduhlhdu5kcRI9vF10vMi10","latitude":48.86771599999999,"longitude":2.3472756,"name":"Le Paristanbul","opening_hours":{"0":[],"1":[],"2":[],"3":[],"4":[],"5":[],"6":[]},"rating":4.0,"utc_offset":60}
{"id":"ChIJWyVepXRy5kcRUzpLZ8sW-vk","latitude":48.85081779999999,"longitude":2.389704,"name":"Le Manuscrit","opening_hours":{"0":[],"1":[],"2":[],"3":[],"4":[],"5":[],"6":[]},"rating":0.0,"utc_offset":60}
{"id":"ChIJOxeopxlu5kcRS0e0ez5f1lc","latitude":48.86364649999999,"longitude":2.3488964,"name":"Café Étienne","opening_hours":{"0":[{"_1":8.0,"_2":24.0},{"_1":0.0,"_2":2.0}],"1":[{"_1":0.0,"_2":2.0},{"_1":6.0,"_2":24.0}],"2":[{"_1":0.0,"_2":2.0},{"_1":6.0,"_2":24.0}],"3":[{"_1":0.0,"_2":2.0},{"_1":6.0,"_2":24.0}],"4":[{"_1":0.0,"_2":2.0},{"_1":6.0,"_2":24.0}],"5":[{"_1":0.0,"_2":2.0},{"_1":6.0,"_2":24.0}],"6":[{"_1":0.0,"_2":2.0},{"_1":7.0,"_2":24.0}]},"rating":3.0,"utc_offset":60}
{"id":"ChIJV8lg9Zly5kcRtFcuF0sOBII","latitude":48.8457064,"longitude":2.4280273,"name":"Pat à Tarte","opening_hours":{"0":[],"1":[],"2":[],"3":[],"4":[],"5":[],"6":[]},"rating":5.0,"utc_offset":60}
{"id":"ChIJ0Y5OaFtt5kcRQVbf-0mfAmQ","latitude":48.8629559,"longitude":2.4414916,"name":"Combas Jules","opening_hours":{"0":[],"1":[],"2":[],"3":[],"4":[],"5":[],"6":[]},"rating":0.0,"utc_offset":60}
{"id":"ChIJg-LMvxdu5kcR9r_8nQPVWdk","latitude":48.8674883,"longitude":2.3472395,"name":"Empire Bar","opening_hours":{"0":[],"1":[{"_1":6.5,"_2":20.0}],"2":[{"_1":6.5,"_2":20.0}],"3":[{"_1":6.5,"_2":20.0}],"4":[{"_1":6.5,"_2":20.0}],"5":[{"_1":6.5,"_2":20.0}],"6":[{"_1":7.5,"_2":20.0}]},"rating":2.7,"utc_offset":60}
{"id":"ChIJbabjEBlu5kcRf4quKVb1us8","latitude":48.8629639,"longitude":2.348785700000001,"name":"Hoki Sushi","opening_hours":{"0":[],"1":[],"2":[],"3":[],"4":[],"5":[],"6":[]},"rating":3.8,"utc_offset":60}
{"id":"ChIJ3QHyugtu5kcRHTtoVYG07To","latitude":48.87265530000001,"longitude":2.3647753,"name":"Canaletto Caffè","opening_hours":{"0":[{"_1":12.0,"_2":16.0},{"_1":19.0,"_2":23.0}],"1":[{"_1":12.0,"_2":15.0},{"_1":19.0,"_2":23.0}],"2":[{"_1":12.0,"_2":15.0},{"_1":19.0,"_2":23.0}],"3":[{"_1":12.0,"_2":15.0},{"_1":19.0,"_2":23.0}],"4":[{"_1":12.0,"_2":15.0},{"_1":19.0,"_2":23.0}],"5":[{"_1":12.0,"_2":15.0},{"_1":19.0,"_2":23.0}],"6":[{"_1":12.0,"_2":15.0},{"_1":19.0,"_2":23.0}]},"rating":4.1,"utc_offset":60}
{"id":"ChIJEwCci5ly5kcRR7xXNZeCmuo","latitude":48.84586299999999,"longitude":2.428238,"name":"Extra Pizza","opening_hours":{"0":[],"1":[],"2":[],"3":[],"4":[],"5":[],"6":[]},"rating":0.0,"utc_offset":60}
{"id":"ChIJhUfAoBFu5kcRELNq_CDpgMg","latitude":48.869522,"longitude":2.3540338,"name":"KFC Paris Strasbourg St Denis","opening_hours":{"0":[{"_1":10.0,"_2":24.0},{"_1":0.0,"_2":1.0}],"1":[{"_1":10.0,"_2":24.0}],"2":[{"_1":10.0,"_2":24.0}],"3":[{"_1":10.0,"_2":24.0}],"4":[{"_1":10.0,"_2":24.0}],"5":[{"_1":10.0,"_2":24.0}],"6":[{"_1":0.0,"_2":1.0},{"_1":10.0,"_2":24.0}]},"rating":2.8,"utc_offset":60}
{"id":"ChIJgxn5zBNu5kcRjFTjWxFEtXE","latitude":48.8720381,"longitude":2.3540864,"name":"Restaurant 52","opening_hours":{"0":[{"_1":8.0,"_2":24.0}],"1":[{"_1":8.0,"_2":24.0}],"2":[{"_1":8.0,"_2":24.0}],"3":[{"_1":8.0,"_2":24.0}],"4":[{"_1":8.0,"_2":24.0}],"5":[{"_1":8.0,"_2":24.0}],"6":[{"_1":8.0,"_2":24.0}]},"rating":4.4,"utc_offset":60}
{"id":"ChIJY5aj1Rlu5kcRjAbdhqjInIg","latitude":48.86606399999999,"longitude":2.348261,"name":"Experimental Cocktail Club","opening_hours":{"0":[{"_1":20.0,"_2":24.0},{"_1":0.0,"_2":4.0}],"1":[{"_1":0.0,"_2":2.0},{"_1":19.0,"_2":24.0}],"2":[{"_1":0.0,"_2":2.0},{"_1":19.0,"_2":24.0}],"3":[{"_1":0.0,"_2":2.0},{"_1":19.0,"_2":24.0}],"4":[{"_1":0.0,"_2":2.0},{"_1":19.0,"_2":24.0}],"5":[{"_1":0.0,"_2":2.0},{"_1":19.0,"_2":24.0}],"6":[{"_1":0.0,"_2":4.0},{"_1":19.0,"_2":24.0}]},"rating":4.2,"utc_offset":60}
{"id":"ChIJMZYYWiNy5kcRYf2vb9-ZYTA","latitude":48.8307173,"longitude":2.37497,"name":"Le Bistrot D'Edgard","opening_hours":{"0":[],"1":[{"_1":8.0,"_2":24.0}],"2":[{"_1":8.0,"_2":24.0}],"3":[{"_1":8.0,"_2":24.0}],"4":[{"_1":8.0,"_2":24.0}],"5":[{"_1":8.0,"_2":24.0}],"6":[{"_1":8.0,"_2":24.0}]},"rating":3.8,"utc_offset":60}
{"id":"ChIJ9aR5k3ly5kcR0FIDY_ePasg","latitude":48.8511345,"longitude":2.4018248,"name":"Les pères populaires","opening_hours":{"0":[{"_1":10.0,"_2":24.0},{"_1":0.0,"_2":2.0}],"1":[{"_1":0.0,"_2":2.0},{"_1":8.5,"_2":24.0}],"2":[{"_1":0.0,"_2":2.0},{"_1":8.5,"_2":24.0}],"3":[{"_1":0.0,"_2":2.0},{"_1":8.5,"_2":24.0}],"4":[{"_1":0.0,"_2":2.0},{"_1":8.5,"_2":24.0}],"5":[{"_1":0.0,"_2":2.0},{"_1":8.5,"_2":24.0}],"6":[{"_1":0.0,"_2":2.0},{"_1":10.0,"_2":24.0}]},"rating":4.3,"utc_offset":60}
{"id":"ChIJ8egnq19u5kcRZC3tC6ruieg","latitude":48.8941161,"longitude":2.3451534,"name":"Sou Khim","opening_hours":{"0":[],"1":[{"_1":11.75,"_2":14.5},{"_1":19.0,"_2":22.0}],"2":[{"_1":11.75,"_2":14.5},{"_1":19.0,"_2":22.0}],"3":[{"_1":11.75,"_2":14.5},{"_1":19.0,"_2":22.0}],"4":[{"_1":11.75,"_2":14.5},{"_1":19.0,"_2":22.0}],"5":[{"_1":11.75,"_2":14.5},{"_1":19.0,"_2":22.0}],"6":[]},"rating":4.8,"utc_offset":60}
{"id":"ChIJT4j4Rwpu5kcRRA10kwBCF_c","latitude":48.872102,"longitude":2.366132,"name":"Le Cambodge","opening_hours":{"0":[{"_1":12.0,"_2":23.0}],"1":[{"_1":12.0,"_2":14.5},{"_1":19.0,"_2":23.0}],"2":[{"_1":12.0,"_2":14.5},{"_1":19.0,"_2":23.0}],"3":[{"_1":12.0,"_2":14.5},{"_1":19.0,"_2":23.0}],"4":[{"_1":12.0,"_2":14.5},{"_1":19.0,"_2":23.0}],"5":[{"_1":12.0,"_2":14.5},{"_1":19.0,"_2":23.5}],"6":[{"_1":12.0,"_2":23.5}]},"rating":4.4,"utc_offset":60}
{"id":"ChIJjeOuSRBu5kcR9_JmAs9Wg6o","latitude":48.8681527,"longitude":2.3551384,"name":"Cuisine Vietnamienne","opening_hours":{"0":[],"1":[],"2":[],"3":[],"4":[],"5":[],"6":[]},"rating":0.0,"utc_offset":60}
{"id":"ChIJIaYjORBu5kcR_oLZBc7cC6E","latitude":48.86771210000001,"longitude":2.3554561,"name":"La Galerie Crus Paris","opening_hours":{"0":[],"1":[],"2":[{"_1":11.0,"_2":20.0}],"3":[{"_1":11.0,"_2":20.0}],"4":[{"_1":11.0,"_2":20.0}],"5":[{"_1":11.0,"_2":20.0}],"6":[{"_1":16.0,"_2":20.0}]},"rating":5.0,"utc_offset":60}
{"id":"ChIJB_ML1mFl5kcRCZvRVsNnoMs","latitude":48.8805536,"longitude":2.2788412,"name":"Orient Extrême Neuilly","opening_hours":{"0":[],"1":[{"_1":12.0,"_2":14.5},{"_1":19.5,"_2":23.0}],"2":[{"_1":12.0,"_2":14.5},{"_1":19.5,"_2":23.0}],"3":[{"_1":12.0,"_2":14.5},{"_1":19.5,"_2":23.0}],"4":[{"_1":12.0,"_2":14.5},{"_1":19.5,"_2":23.0}],"5":[{"_1":12.0,"_2":14.5},{"_1":19.5,"_2":23.0}],"6":[{"_1":12.0,"_2":14.5},{"_1":19.5,"_2":23.0}]},"rating":4.2,"utc_offset":60}
{"id":"ChIJHxzw2Rlu5kcREm706GCn4ro","latitude":48.8659308,"longitude":2.3488226,"name":"aveK","opening_hours":{"0":[{"_1":0.0,"_2":2.0}],"1":[{"_1":18.0,"_2":24.0}],"2":[{"_1":0.0,"_2":2.0},{"_1":18.0,"_2":24.0}],"3":[{"_1":0.0,"_2":2.0},{"_1":18.0,"_2":24.0}],"4":[{"_1":0.0,"_2":2.0},{"_1":18.0,"_2":24.0}],"5":[{"_1":0.0,"_2":2.0},{"_1":18.0,"_2":24.0}],"6":[{"_1":0.0,"_2":2.0},{"_1":18.0,"_2":24.0}]},"rating":4.5,"utc_offset":60}
{"id":"ChIJlQWhKNlx5kcRfsTLTIf-RYw","latitude":48.8535098,"longitude":2.3377589,"name":"Maison burgers","opening_hours":{"0":[{"_1":12.0,"_2":23.0}],"1":[{"_1":12.0,"_2":14.5},{"_1":19.5,"_2":22.5}],"2":[{"_1":12.0,"_2":14.5},{"_1":19.5,"_2":22.5}],"3":[{"_1":12.0,"_2":14.5},{"_1":19.5,"_2":22.5}],"4":[{"_1":12.0,"_2":14.5},{"_1":19.5,"_2":22.5}],"5":[{"_1":12.0,"_2":14.5},{"_1":19.5,"_2":22.5}],"6":[{"_1":12.0,"_2":23.0}]},"rating":4.1,"utc_offset":60}
{"id":"ChIJR_85TRJu5kcR_ZnKjkAXKeM","latitude":48.8729617,"longitude":2.3542561,"name":"Melisse","opening_hours":{"0":[],"1":[],"2":[],"3":[],"4":[],"5":[],"6":[]},"rating":0.0,"utc_offset":60}
{"id":"ChIJtZPUsRNu5kcRG-bThWQnVAc","latitude":48.87291799999999,"longitude":2.353734,"name":"La Ferme","opening_hours":{"0":[{"_1":7.0,"_2":24.0},{"_1":0.0,"_2":2.0}],"1":[{"_1":0.0,"_2":2.0},{"_1":7.0,"_2":24.0}],"2":[{"_1":0.0,"_2":2.0},{"_1":7.0,"_2":24.0}],"3":[{"_1":0.0,"_2":2.0},{"_1":7.0,"_2":24.0}],"4":[{"_1":0.0,"_2":2.0},{"_1":7.0,"_2":24.0}],"5":[{"_1":0.0,"_2":2.0},{"_1":7.0,"_2":24.0}],"6":[{"_1":0.0,"_2":2.0},{"_1":7.0,"_2":24.0}]},"rating":4.6,"utc_offset":60}
{"id":"ChIJ4cxErsJt5kcRx7azmslo7mg","latitude":48.8760888,"longitude":2.3803603,"name":"Le Bolivar","opening_hours":{"0":[],"1":[],"2":[],"3":[],"4":[],"5":[],"6":[]},"rating":1.0,"utc_offset":60}
{"id":"ChIJ7wm1TQpu5kcR-FnYqi3om3U","latitude":48.8726381,"longitude":2.3657583,"name":"Bar Chevere","opening_hours":{"0":[],"1":[],"2":[],"3":[],"4":[],"5":[],"6":[]},"rating":5.0,"utc_offset":60}
{"id":"ChIJ0Y5OaFtt5kcRAbXUBEwSFIY","latitude":48.862837,"longitude":2.441523,"name":"Les Monédières","opening_hours":{"0":[],"1":[],"2":[],"3":[],"4":[],"5":[],"6":[]},"rating":2.5,"utc_offset":60}
{"id":"ChIJNQCWs19u5kcRsBCmD-9Pry8","latitude":48.8941215,"longitude":2.3457738,"name":"Les Fondus de la Raclette Paris 18ème Jules Joffrin","opening_hours":{"0":[{"_1":12.0,"_2":15.0},{"_1":19.0,"_2":23.0}],"1":[{"_1":12.0,"_2":14.5},{"_1":19.0,"_2":23.0}],"2":[{"_1":12.0,"_2":14.5},{"_1":19.0,"_2":23.0}],"3":[{"_1":12.0,"_2":14.5},{"_1":19.0,"_2":23.0}],"4":[{"_1":12.0,"_2":14.5},{"_1":19.0,"_2":23.0}],"5":[{"_1":12.0,"_2":14.5},{"_1":19.0,"_2":23.5}],"6":[{"_1":12.0,"_2":14.5},{"_1":19.0,"_2":23.5}]},"rating":3.3,"utc_offset":60}
{"id":"ChIJY0M7xwBy5kcRuM8mk7wcSBo","latitude":48.85425,"longitude":2.371704100000001,"name":"Chantier Interdit","opening_hours":{"0":[{"_1":17.0,"_2":24.0},{"_1":0.0,"_2":4.0}],"1":[{"_1":0.0,"_2":2.0},{"_1":17.0,"_2":24.0}],"2":[{"_1":0.0,"_2":2.0},{"_1":17.0,"_2":24.0}],"3":[{"_1":0.0,"_2":2.0},{"_1":17.0,"_2":24.0}],"4":[{"_1":0.0,"_2":2.0},{"_1":17.0,"_2":24.0}],"5":[{"_1":0.0,"_2":4.0},{"_1":17.0,"_2":24.0}],"6":[{"_1":0.0,"_2":4.0},{"_1":17.0,"_2":24.0}]},"rating":3.4,"utc_offset":60}
{"id":"ChIJT3cW5Uxu5kcRqdcjgAKM_q0","latitude":48.8835096,"longitude":2.3262349,"name":"James Bún","opening_hours":{"0":[{"_1":12.0,"_2":23.0}],"1":[{"_1":12.0,"_2":23.0}],"2":[{"_1":12.0,"_2":23.0}],"3":[{"_1":12.0,"_2":23.0}],"4":[{"_1":12.0,"_2":23.0}],"5":[{"_1":12.0,"_2":23.0}],"6":[{"_1":12.0,"_2":23.0}]},"rating":4.2,"utc_offset":60}
{"id":"ChIJXa1mj3Zu5kcRFNdz00IADc8","latitude":48.8823218,"longitude":2.3688816,"name":"La Pointe Lafayette","opening_hours":{"0":[],"1":[],"2":[],"3":[],"4":[],"5":[],"6":[]},"rating":3.3,"utc_offset":60}
{"id":"ChIJuZvdav1t5kcR0fyWsPAzRF4","latitude":48.86424419999999,"longitude":2.3688665,"name":"Migozzi SAS Alexandre","opening_hours":{"0":[],"1":[],"2":[],"3":[],"4":[],"5":[],"6":[]},"rating":0.0,"utc_offset":60}
{"id":"ChIJ6Sw6Z1tt5kcRUkcAmxfTrTQ","latitude":48.86299930000001,"longitude":2.441328,"name":"Gangnam Grillade","opening_hours":{"0":[{"_1":10.5,"_2":23.0}],"1":[{"_1":10.5,"_2":23.0}],"2":[{"_1":10.5,"_2":23.0}],"3":[{"_1":10.5,"_2":23.0}],"4":[{"_1":10.5,"_2":23.0}],"5":[{"_1":10.5,"_2":23.0}],"6":[{"_1":10.5,"_2":23.0}]},"rating":4.8,"utc_offset":60}
{"id":"ChIJk4TI-Rlu5kcRk6-pjAPstw0","latitude":48.86558749999999,"longitude":2.3506646,"name":"Café Madam","opening_hours":{"0":[{"_1":10.0,"_2":18.0}],"1":[],"2":[{"_1":10.0,"_2":18.0}],"3":[{"_1":10.0,"_2":18.0}],"4":[{"_1":10.0,"_2":18.0}],"5":[{"_1":10.0,"_2":18.0}],"6":[{"_1":10.0,"_2":18.0}]},"rating":3.7,"utc_offset":60}
{"id":"ChIJidehERpu5kcRBQAiaeAd2sQ","latitude":48.86537199999999,"longitude":2.3518028,"name":"Thai Viet","opening_hours":{"0":[],"1":[],"2":[],"3":[],"4":[],"5":[],"6":[]},"rating":3.6,"utc_offset":60}
{"id":"ChIJkXODvRdu5kcRn9IGu8UNZ3k","latitude":48.8676095,"longitude":2.347253100000001,"name":"Subway","opening_hours":{"0":[{"_1":8.5,"_2":22.5}],"1":[{"_1":8.5,"_2":22.5}],"2":[{"_1":8.5,"_2":22.5}],"3":[{"_1":8.5,"_2":22.5}],"4":[{"_1":8.5,"_2":22.5}],"5":[{"_1":8.5,"_2":22.5}],"6":[{"_1":8.5,"_2":22.5}]},"rating":3.2,"utc_offset":60}
{"id":"ChIJHSoATQVu5kcRaOHIjSTctEw","latitude":48.8651837,"longitude":2.3566092,"name":"Seka","opening_hours":{"0":[],"1":[],"2":[],"3":[],"4":[],"5":[],"6":[]},"rating":0.0,"utc_offset":60}
{"id":"ChIJVVXlCz5u5kcRbKexyJGhQbA","latitude":48.8716032,"longitude":2.3446313,"name":"La Cour Saint Germain","opening_hours":{"0":[],"1":[],"2":[],"3":[],"4":[],"5":[],"6":[]},"rating":0.0,"utc_offset":60}
{"id":"ChIJwXpAEhpu5kcR6oHSMdOHi9g","latitude":48.8655078,"longitude":2.3516825,"name":"Brasserie Le Français","opening_hours":{"0":[],"1":[{"_1":7.0,"_2":21.0}],"2":[{"_1":7.0,"_2":21.0}],"3":[{"_1":7.0,"_2":21.0}],"4":[{"_1":7.0,"_2":21.0}],"5":[{"_1":7.0,"_2":21.0}],"6":[{"_1":9.0,"_2":18.0}]},"rating":5.0,"utc_offset":60}
{"id":"ChIJv7JzxxRu5kcR4erzMX_tZi8","latitude":48.8754079,"longitude":2.3500513,"name":"Tesoro d'Italia","opening_hours":{"0":[],"1":[{"_1":12.0,"_2":15.0},{"_1":18.5,"_2":23.0}],"2":[{"_1":12.0,"_2":15.0},{"_1":18.5,"_2":23.0}],"3":[{"_1":12.0,"_2":15.0},{"_1":18.5,"_2":23.0}],"4":[{"_1":12.0,"_2":15.0},{"_1":18.5,"_2":23.0}],"5":[{"_1":12.0,"_2":15.0},{"_1":18.5,"_2":23.0}],"6":[{"_1":12.0,"_2":15.0},{"_1":18.5,"_2":23.0}]},"rating":4.3,"utc_offset":60}
{"id":"ChIJsxCrwBNu5kcRxwc708bEZng","latitude":48.87243040000001,"longitude":2.3532141,"name":"Toms High Fidelity Café","opening_hours":{"0":[],"1":[],"2":[],"3":[],"4":[],"5":[],"6":[]},"rating":3.9,"utc_offset":60}
{"id":"ChIJNX6w7hpu5kcRK7IlP2m7aHU","latitude":48.8644712,"longitude":2.354634,"name":"Shabu Sha","opening_hours":{"0":[{"_1":12.0,"_2":15.0},{"_1":19.0,"_2":23.0}],"1":[{"_1":12.0,"_2":15.0},{"_1":19.0,"_2":23.0}],"2":[{"_1":19.0,"_2":23.0}],"3":[{"_1":19.0,"_2":23.0}],"4":[{"_1":12.0,"_2":15.0},{"_1":19.0,"_2":23.0}],"5":[{"_1":12.0,"_2":15.0},{"_1":19.0,"_2":23.5}],"6":[{"_1":12.0,"_2":15.0},{"_1":19.0,"_2":23.5}]},"rating":4.2,"utc_offset":60}
{"id":"ChIJ_Yeynd1t5kcRP2s8X-yccZ4","latitude":48.8766159,"longitude":2.3766045,"name":"Sanchez-Sanchez Francisco","opening_hours":{"0":[],"1":[],"2":[],"3":[],"4":[],"5":[],"6":[]},"rating":1.8,"utc_offset":60}
{"id":"ChIJK_K0yABy5kcRoFDILmu6owA","latitude":48.8541353,"longitude":2.3717446,"name":"Le Codebar","opening_hours":{"0":[{"_1":17.0,"_2":24.0},{"_1":0.0,"_2":2.0}],"1":[{"_1":0.0,"_2":2.0},{"_1":17.0,"_2":24.0}],"2":[{"_1":0.0,"_2":2.0},{"_1":17.0,"_2":24.0}],"3":[{"_1":0.0,"_2":2.0},{"_1":17.0,"_2":24.0}],"4":[{"_1":0.0,"_2":2.0},{"_1":17.0,"_2":24.0}],"5":[{"_1":0.0,"_2":2.0},{"_1":17.0,"_2":24.0}],"6":[{"_1":0.0,"_2":2.0},{"_1":17.0,"_2":24.0}]},"rating":4.5,"utc_offset":60}
{"id":"ChIJheDJGTpu5kcRTSs43nL_86E","latitude":48.87095850000001,"longitude":2.3356336,"name":"Burger Année 50","opening_hours":{"0":[{"_1":9.0,"_2":24.0}],"1":[{"_1":9.0,"_2":24.0}],"2":[{"_1":9.0,"_2":24.0}],"3":[{"_1":9.0,"_2":24.0}],"4":[{"_1":9.0,"_2":24.0}],"5":[{"_1":9.0,"_2":24.0}],"6":[{"_1":9.0,"_2":24.0}]},"rating":0.0,"utc_offset":60}
{"id":"ChIJV65XfRBu5kcRG4qrGFlVpUI","latitude":48.86646210000001,"longitude":2.3536948,"name":"Bistrot De La Gaité","opening_hours":{"0":[{"_1":10.0,"_2":22.5}],"1":[{"_1":8.0,"_2":24.0}],"2":[{"_1":8.0,"_2":24.0}],"3":[{"_1":8.0,"_2":24.0}],"4":[{"_1":8.0,"_2":24.0}],"5":[{"_1":8.0,"_2":24.0}],"6":[{"_1":10.0,"_2":24.0}]},"rating":2.9,"utc_offset":60}
{"id":"ChIJN3lbQU1u5kcRA4cqp_UATsg","latitude":48.8858924,"longitude":2.3254845,"name":"Baromètre Le","opening_hours":{"0":[],"1":[],"2":[],"3":[],"4":[],"5":[],"6":[]},"rating":4.0,"utc_offset":60}
{"id":"ChIJ5zKavhRu5kcRZiTnhzJTXKI","latitude":48.8751973,"longitude":2.3507216,"name":"Café Pélican","opening_hours":{"0":[{"_1":0.0,"_2":2.0}],"1":[{"_1":8.0,"_2":24.0}],"2":[{"_1":0.0,"_2":2.0},{"_1":8.0,"_2":24.0}],"3":[{"_1":0.0,"_2":2.0},{"_1":8.0,"_2":24.0}],"4":[{"_1":0.0,"_2":2.0},{"_1":8.0,"_2":24.0}],"5":[{"_1":0.0,"_2":2.0},{"_1":8.0,"_2":24.0}],"6":[{"_1":0.0,"_2":2.0},{"_1":8.0,"_2":24.0}]},"rating":3.9,"utc_offset":60}
{"id":"ChIJlVFBm91t5kcRr2kSSzYKuXA","latitude":48.8765146,"longitude":2.3766217,"name":"Bolivar Atlas","opening_hours":{"0":[],"1":[{"_1":12.0,"_2":14.5},{"_1":19.0,"_2":22.5}],"2":[{"_1":12.0,"_2":14.5},{"_1":19.0,"_2":22.5}],"3":[{"_1":12.0,"_2":14.5},{"_1":19.0,"_2":22.5}],"4":[{"_1":12.0,"_2":14.5},{"_1":19.0,"_2":22.5}],"5":[{"_1":12.0,"_2":14.5},{"_1":19.0,"_2":22.5}],"6":[{"_1":12.0,"_2":14.5},{"_1":19.0,"_2":22.5}]},"rating":3.8,"utc_offset":60}
{"id":"ChIJcRklrHly5kcRTwJJEpjyGUA","latitude":48.8522288,"longitude":2.4027067,"name":"Chauvet Gerard Michel","opening_hours":{"0":[],"1":[],"2":[],"3":[],"4":[],"5":[],"6":[]},"rating":0.0,"utc_offset":60}
{"id":"ChIJZ3OMCT5u5kcROvQwqRWWWgU","latitude":48.8714144,"longitude":2.3446993,"name":"Sunset Boulevard","opening_hours":{"0":[{"_1":12.0,"_2":24.0},{"_1":0.0,"_2":2.0}],"1":[{"_1":10.0,"_2":24.0}],"2":[{"_1":0.0,"_2":2.0},{"_1":10.0,"_2":24.0}],"3":[{"_1":0.0,"_2":2.0},{"_1":10.0,"_2":24.0}],"4":[{"_1":0.0,"_2":2.0},{"_1":10.0,"_2":24.0}],"5":[{"_1":0.0,"_2":2.0},{"_1":10.0,"_2":24.0}],"6":[{"_1":0.0,"_2":2.0},{"_1":10.0,"_2":24.0}]},"rating":3.6,"utc_offset":60}
{"id":"ChIJr5qqME1u5kcRhyOsbRn_iEw","latitude":48.8852166,"longitude":2.3251914,"name":"Lanna Café","opening_hours":{"0":[{"_1":18.5,"_2":23.0}],"1":[{"_1":18.5,"_2":23.0}],"2":[{"_1":12.0,"_2":14.5},{"_1":18.5,"_2":23.0}],"3":[{"_1":12.0,"_2":14.5},{"_1":18.5,"_2":23.0}],"4":[{"_1":12.0,"_2":14.5},{"_1":18.5,"_2":23.0}],"5":[{"_1":12.0,"_2":14.5},{"_1":18.5,"_2":23.0}],"6":[{"_1":18.5,"_2":23.0}]},"rating":3.9,"utc_offset":60}
{"id":"ChIJ623DLHxMHRURXFdDNEZCcbM","latitude":32.0777793,"longitude":34.7680882,"name":"Red meat","opening_hours":{"0":[],"1":[],"2":[],"3":[],"4":[],"5":[],"6":[]},"rating":5.0,"utc_offset":120}
{"id":"ChIJSRcMJg5u5kcRiCeFKPS-JbU","latitude":48.8691919,"longitude":2.357238,"name":"Café du Théâtre","opening_hours":{"0":[{"_1":9.0,"_2":22.0}],"1":[],"2":[{"_1":9.0,"_2":22.0}],"3":[{"_1":9.0,"_2":22.0}],"4":[{"_1":9.0,"_2":22.0}],"5":[{"_1":9.0,"_2":22.0}],"6":[{"_1":9.0,"_2":22.0}]},"rating":5.0,"utc_offset":60}
{"id":"ChIJ0YnpDhFu5kcR7F8ir5vDYmA","latitude":48.86989699999999,"longitude":2.352978,"name":"Subway","opening_hours":{"0":[{"_1":10.0,"_2":23.0}],"1":[{"_1":10.0,"_2":23.0}],"2":[{"_1":10.0,"_2":23.0}],"3":[{"_1":10.0,"_2":23.0}],"4":[{"_1":10.0,"_2":23.0}],"5":[{"_1":10.0,"_2":23.0}],"6":[{"_1":10.0,"_2":23.0}]},"rating":3.4,"utc_offset":60}
{"id":"ChIJwZArDQ9u5kcRb6SxhDAHXow","latitude":48.86731200000001,"longitude":2.359993,"name":"Bistrot de la Bonne Cécile","opening_hours":{"0":[{"_1":11.75,"_2":14.5}],"1":[],"2":[{"_1":7.0,"_2":22.5}],"3":[{"_1":7.0,"_2":22.5}],"4":[{"_1":7.0,"_2":22.5}],"5":[{"_1":7.0,"_2":22.5}],"6":[{"_1":7.0,"_2":22.5}]},"rating":4.6,"utc_offset":60}
{"id":"ChIJn74Uuw9u5kcReShi1e81S4I","latitude":48.8676632,"longitude":2.358653599999999,"name":"Coltrane","opening_hours":{"0":[],"1":[],"2":[],"3":[],"4":[],"5":[],"6":[]},"rating":4.1,"utc_offset":60}
{"id":"ChIJQ9Qk4hBu5kcRhxGU2iO9rgQ","latitude":48.868536,"longitude":2.3529,"name":"Ness Deli's","opening_hours":{"0":[],"1":[],"2":[],"3":[],"4":[],"5":[],"6":[]},"rating":5.0,"utc_offset":60}
{"id":"ChIJDXYOxnly5kcRl-qSPRQdaBo","latitude":48.8518512,"longitude":2.401417,"name":"Zhuo","opening_hours":{"0":[],"1":[],"2":[],"3":[],"4":[],"5":[],"6":[]},"rating":0.0,"utc_offset":60}
{"id":"ChIJyy3wuBtu5kcRQY19g9u6nGI","latitude":48.862749,"longitude":2.3521758,"name":"Hanano","opening_hours":{"0":[],"1":[],"2":[],"3":[],"4":[],"5":[],"6":[]},"rating":3.8,"utc_offset":60}
{"id":"ChIJg5wxPf1t5kcRi5kRnK4tauc","latitude":48.8646663,"longitude":2.3697112,"name":"La Prune Folle","opening_hours":{"0":[{"_1":11.0,"_2":17.0},{"_1":0.0,"_2":1.5}],"1":[],"2":[{"_1":18.0,"_2":23.5}],"3":[{"_1":18.0,"_2":23.5}],"4":[{"_1":18.0,"_2":23.5}],"5":[{"_1":18.0,"_2":24.0}],"6":[{"_1":0.0,"_2":1.0},{"_1":11.0,"_2":15.5},{"_1":18.0,"_2":24.0}]},"rating":4.0,"utc_offset":60}
{"id":"ChIJ009fIjRu5kcRzJdDal6O_9E","latitude":48.872879,"longitude":2.328905,"name":"Le Mondial","opening_hours":{"0":[],"1":[{"_1":7.0,"_2":23.5}],"2":[{"_1":7.0,"_2":23.5}],"3":[{"_1":7.0,"_2":23.5}],"4":[{"_1":7.0,"_2":23.5}],"5":[{"_1":7.0,"_2":23.5}],"6":[{"_1":7.0,"_2":23.5}]},"rating":2.8,"utc_offset":60}
{"id":"ChIJj4XoSFtt5kcRyyGfOt8vJss","latitude":48.8637791,"longitude":2.4418549,"name":"Djeddi Djamal","opening_hours":{"0":[],"1":[],"2":[],"3":[],"4":[],"5":[],"6":[]},"rating":2.0,"utc_offset":60}
{"id":"ChIJGW5qyxNu5kcRrNs24tdDAgY","latitude":48.8721446,"longitude":2.3541195,"name":"La Distillerie de Paris","opening_hours":{"0":[],"1":[],"2":[],"3":[],"4":[],"5":[],"6":[]},"rating":0.0,"utc_offset":60}
{"id":"ChIJt4AJ16dqHRURP_iZUjKIuJA","latitude":32.32982629999999,"longitude":34.8523129,"name":"Yorgos","opening_hours":{"0":[{"_1":10.0,"_2":24.0}],"1":[{"_1":0.0,"_2":1.0},{"_1":10.0,"_2":24.0}],"2":[{"_1":0.0,"_2":1.0},{"_1":10.0,"_2":24.0}],"3":[{"_1":0.0,"_2":1.0},{"_1":10.0,"_2":24.0}],"4":[{"_1":0.0,"_2":1.0},{"_1":10.0,"_2":24.0}],"5":[{"_1":0.0,"_2":1.0},{"_1":9.0,"_2":15.0}],"6":[]},"rating":4.8,"utc_offset":120}
{"id":"ChIJ33au_xNu5kcRg3zBt7fkVFg","latitude":48.87119269999999,"longitude":2.3518802,"name":"Mesken - Paris Börekçisi","opening_hours":{"0":[{"_1":10.0,"_2":18.0}],"1":[{"_1":8.0,"_2":20.0}],"2":[{"_1":8.0,"_2":20.0}],"3":[{"_1":8.0,"_2":20.0}],"4":[{"_1":8.0,"_2":20.0}],"5":[{"_1":8.0,"_2":20.0}],"6":[{"_1":8.0,"_2":20.0}]},"rating":4.8,"utc_offset":60}
{"id":"ChIJwaohVkxu5kcRZY3U8z3-58Y","latitude":48.8838939,"longitude":2.3269568,"name":"The Titan Club","opening_hours":{"0":[{"_1":23.0,"_2":24.0},{"_1":0.0,"_2":7.0}],"1":[{"_1":0.0,"_2":7.0},{"_1":23.0,"_2":24.0}],"2":[{"_1":0.0,"_2":7.0}],"3":[],"4":[{"_1":23.0,"_2":24.0}],"5":[{"_1":0.0,"_2":7.0},{"_1":23.0,"_2":24.0}],"6":[{"_1":0.0,"_2":7.0},{"_1":23.0,"_2":24.0}]},"rating":3.8,"utc_offset":60}
{"id":"ChIJ37L6N_1t5kcRPiJ7oAPawGk","latitude":48.8651169,"longitude":2.369147,"name":"La Cantine de l'Embuscade","opening_hours":{"0":[],"1":[],"2":[{"_1":12.0,"_2":14.5},{"_1":19.5,"_2":24.0}],"3":[{"_1":12.0,"_2":14.5},{"_1":19.5,"_2":24.0}],"4":[{"_1":12.0,"_2":14.5},{"_1":19.5,"_2":24.0}],"5":[{"_1":12.0,"_2":14.5},{"_1":19.5,"_2":24.0}],"6":[{"_1":19.5,"_2":24.0}]},"rating":4.3,"utc_offset":60}
{"id":"ChIJBxqSKnxMHRUR6Ms3lbPIsUc","latitude":32.0777055,"longitude":34.7684878,"name":"סיציליאנו","opening_hours":{"0":[{"_1":11.5,"_2":23.0}],"1":[{"_1":11.5,"_2":23.0}],"2":[{"_1":11.5,"_2":23.0}],"3":[{"_1":11.5,"_2":23.0}],"4":[{"_1":11.5,"_2":23.0}],"5":[{"_1":10.0,"_2":15.0}],"6":[{"_1":18.0,"_2":24.0}]},"rating":2.0,"utc_offset":120}
{"id":"ChIJAQC0oxdu5kcRXtJEVpLb6gg","latitude":48.8676647,"longitude":2.3477541,"name":"フレンチートゥゴー","opening_hours":{"0":[],"1":[],"2":[],"3":[],"4":[],"5":[],"6":[]},"rating":0.0,"utc_offset":60}
{"id":"ChIJ4-g2CBdu5kcRzxXr5lJ9Bwg","latitude":48.86793050000001,"longitude":2.3482392,"name":"Foodi Jia-Ba-Buay","opening_hours":{"0":[{"_1":11.0,"_2":15.0}],"1":[{"_1":12.0,"_2":14.5}],"2":[{"_1":12.0,"_2":14.5}],"3":[{"_1":12.0,"_2":14.5},{"_1":19.0,"_2":22.0}],"4":[{"_1":12.0,"_2":14.5},{"_1":19.0,"_2":22.0}],"5":[{"_1":12.0,"_2":14.5},{"_1":19.0,"_2":22.0}],"6":[{"_1":19.0,"_2":22.0}]},"rating":4.7,"utc_offset":60}
{"id":"ChIJuWHpbRFu5kcRB_liGFJAGmE","latitude":48.8701991,"longitude":2.3529787,"name":"Le Prado","opening_hours":{"0":[{"_1":7.0,"_2":24.0},{"_1":0.0,"_2":2.0}],"1":[{"_1":7.0,"_2":24.0}],"2":[{"_1":0.0,"_2":2.0},{"_1":7.0,"_2":24.0}],"3":[{"_1":0.0,"_2":2.0},{"_1":7.0,"_2":24.0}],"4":[{"_1":0.0,"_2":2.0},{"_1":7.0,"_2":24.0}],"5":[{"_1":0.0,"_2":2.0},{"_1":7.0,"_2":24.0}],"6":[{"_1":0.0,"_2":2.0},{"_1":7.0,"_2":24.0}]},"rating":4.1,"utc_offset":60}
{"id":"ChIJXfBaL9lx5kcRZPucPqaz0Hk","latitude":48.8534332,"longitude":2.3379713,"name":"Hoisin","opening_hours":{"0":[],"1":[],"2":[],"3":[],"4":[],"5":[],"6":[]},"rating":0.0,"utc_offset":60}
{"id":"ChIJocC1Y3ly5kcRpIXzCzNEThM","latitude":48.85029309999999,"longitude":2.403816,"name":"Lvh","opening_hours":{"0":[],"1":[],"2":[],"3":[],"4":[],"5":[],"6":[]},"rating":4.5,"utc_offset":60}
{"id":"ChIJnYLnmZly5kcRgpLV4MN4Rus","latitude":48.8464023,"longitude":2.429108100000001,"name":"Chez Antoine","opening_hours":{"0":[{"_1":11.0,"_2":23.0}],"1":[{"_1":10.5,"_2":15.0},{"_1":17.5,"_2":23.0}],"2":[{"_1":10.5,"_2":15.0},{"_1":16.0,"_2":23.0}],"3":[{"_1":10.5,"_2":15.0},{"_1":16.0,"_2":23.0}],"4":[{"_1":10.5,"_2":15.0},{"_1":16.0,"_2":23.0}],"5":[{"_1":10.5,"_2":23.0}],"6":[{"_1":10.5,"_2":23.0}]},"rating":4.7,"utc_offset":60}
{"id":"ChIJ15akshNu5kcRrHPQEnsvf_k","latitude":48.872988,"longitude":2.354218,"name":"Mamie Burger Faubourg St-Denis","opening_hours":{"0":[{"_1":8.0,"_2":24.0},{"_1":0.0,"_2":2.0}],"1":[{"_1":0.0,"_2":2.0},{"_1":8.0,"_2":24.0}],"2":[{"_1":0.0,"_2":2.0},{"_1":8.0,"_2":24.0}],"3":[{"_1":0.0,"_2":2.0},{"_1":8.0,"_2":24.0}],"4":[{"_1":0.0,"_2":2.0},{"_1":8.0,"_2":24.0}],"5":[{"_1":0.0,"_2":2.0},{"_1":8.0,"_2":24.0}],"6":[{"_1":0.0,"_2":2.0},{"_1":8.0,"_2":24.0}]},"rating":4.0,"utc_offset":60}
{"id":"ChIJ8QIXbBpu5kcRNCFQyu9sca4","latitude":48.86528439999999,"longitude":2.3526087,"name":"Restaurant Argane SMJ Samir","opening_hours":{"0":[],"1":[],"2":[],"3":[],"4":[],"5":[],"6":[]},"rating":0.0,"utc_offset":60}
{"id":"ChIJj08B9Blu5kcRsZpXw__LfoU","latitude":48.8652509,"longitude":2.3505839,"name":"H H Paris","opening_hours":{"0":[],"1":[],"2":[],"3":[],"4":[],"5":[],"6":[]},"rating":0.0,"utc_offset":60}
{"id":"ChIJN555Og5u5kcRjcUnjYZH6DQ","latitude":48.8691593,"longitude":2.3577426,"name":"Ciacco","opening_hours":{"0":[],"1":[],"2":[{"_1":12.0,"_2":14.5},{"_1":19.5,"_2":23.0}],"3":[{"_1":12.0,"_2":14.5},{"_1":19.5,"_2":23.0}],"4":[{"_1":12.0,"_2":14.5},{"_1":19.5,"_2":23.0}],"5":[{"_1":12.0,"_2":14.5},{"_1":19.5,"_2":23.0}],"6":[{"_1":12.0,"_2":14.5},{"_1":19.5,"_2":23.0}]},"rating":4.7,"utc_offset":60}
{"id":"ChIJVSHnaxFu5kcR1nyBThZO4nM","latitude":48.8700737,"longitude":2.352915799999999,"name":"Delicieux","opening_hours":{"0":[{"_1":10.0,"_2":24.0}],"1":[{"_1":10.0,"_2":24.0}],"2":[{"_1":10.0,"_2":24.0}],"3":[{"_1":10.0,"_2":24.0}],"4":[{"_1":10.0,"_2":24.0}],"5":[{"_1":10.0,"_2":24.0}],"6":[{"_1":10.0,"_2":24.0}]},"rating":4.7,"utc_offset":60}
{"id":"ChIJ05dyZq5v5kcRUhoJU08o80Q","latitude":48.8891398,"longitude":2.317956,"name":"Le Bocal","opening_hours":{"0":[],"1":[],"2":[],"3":[],"4":[],"5":[],"6":[]},"rating":0.0,"utc_offset":60}
{"id":"ChIJq9P75ZBx5kcRqL04ZVJF860","latitude":48.8278942,"longitude":2.3495463,"name":"Pizza Cinq Diamants","opening_hours":{"0":[],"1":[],"2":[{"_1":12.0,"_2":14.5},{"_1":18.0,"_2":23.0}],"3":[{"_1":12.0,"_2":14.5},{"_1":18.0,"_2":23.0}],"4":[{"_1":12.0,"_2":14.5},{"_1":18.0,"_2":23.0}],"5":[{"_1":12.0,"_2":14.5},{"_1":18.0,"_2":23.0}],"6":[{"_1":12.0,"_2":14.5},{"_1":18.0,"_2":23.0}]},"rating":4.1,"utc_offset":60}
{"id":"ChIJ9wPDGP1t5kcRuU-2tWgnWOQ","latitude":48.8644444,"longitude":2.3701153,"name":"Ober Mamma","opening_hours":{"0":[{"_1":12.25,"_2":15.5},{"_1":19.0,"_2":24.0},{"_1":0.0,"_2":1.0}],"1":[{"_1":0.0,"_2":1.0},{"_1":12.25,"_2":14.25},{"_1":19.0,"_2":24.0}],"2":[{"_1":0.0,"_2":1.0},{"_1":12.25,"_2":14.25},{"_1":19.0,"_2":24.0}],"3":[{"_1":0.0,"_2":1.0},